continent,,name,entity_subtype,country,latitude,longitude,has_thumbnail,page_views,entity_type,total_area,population,is_test,continent
Africa,3220,"Mbale, Kenya",PopulatedPlace,Kenya,0.0816667,34.7214,1,10423.0,populated_place,,60000.0,False,Africa
Africa,3221,Gamawa,PopulatedPlace,Nigeria,12.1333,10.5333,1,5501.0,populated_place,2925000000.0,286388.0,False,Africa
Africa,3222,Béni Saf,PopulatedPlace,Algeria,35.3,-1.38333,1,7001.0,populated_place,61300000.0,43802.0,False,Africa
Africa,3223,Cato Ridge,PopulatedPlace,South Africa,-29.716,30.616,0,9618.0,populated_place,20180000.0,3874.0,False,Africa
Africa,3224,Bloubosrand,PopulatedPlace,South Africa,-26.0267,27.9667,0,6675.0,populated_place,2360000.0,10879.0,False,Africa
Africa,3225,Lephalale Local Municipality,PopulatedPlace,South Africa,-23.5,27.9167,1,7846.0,populated_place,13784000000.0,115767.0,False,Africa
Africa,3226,Elsie's River,PopulatedPlace,South Africa,-33.9181,18.5767,1,25572.0,populated_place,5520000.0,42479.0,True,Africa
Africa,3227,Saint Mark's Coptic Orthodox Cathedral,HistoricBuilding,Egypt,30.0722,31.2756,1,61797.0,structure,,,False,Africa
Africa,3228,Bon Accord Dam,Dam,South Africa,-25.6292,28.1894,1,6743.0,structure,,,False,Africa
Africa,3229,Three Rivers East,PopulatedPlace,South Africa,-26.66,28.007,0,6397.0,populated_place,3090000.0,2547.0,True,Africa
Africa,3230,Limpopo,Region,South Africa,-24.0,29.0,1,425298.0,populated_place,125754000000.0,5404868.0,False,Africa
Africa,3231,Minya Governorate,PopulatedPlace,Egypt,28.11,30.11,1,59415.0,populated_place,32279000000.0,5807000.0,False,Africa
Africa,3232,Molteno Dam,Dam,South Africa,-33.9385,18.412,1,6206.0,structure,,,False,Africa
Africa,3233,Skukuza,PopulatedPlace,South Africa,-24.9958,31.5919,1,30482.0,populated_place,4980000.0,1599.0,False,Africa
Africa,3234,Gariep Dam (town),PopulatedPlace,South Africa,-30.6,25.5,1,18305.0,populated_place,24830000.0,1568.0,False,Africa
Africa,3235,Mpeketoni,PopulatedPlace,Kenya,-2.38889,40.4219,1,8776.0,populated_place,,50000.0,False,Africa
Africa,3236,"Belouizdad, Algiers",PopulatedPlace,Algeria,36.7535,3.06228,1,7162.0,populated_place,,44050.0,False,Africa
Africa,3237,Giraffe Manor,Building,Kenya,-1.3756,36.7447,1,112414.0,structure,,,True,Africa
Africa,3238,Mangaung Metropolitan Municipality,PopulatedPlace,South Africa,-29.1,26.2167,1,40774.0,populated_place,6284000000.0,747431.0,False,Africa
Africa,3239,Gulf of Aqaba,Bay,Egypt,28.75,34.75,1,272303.0,natural_place,,,True,Africa
Africa,3240,Mount Edgecombe,PopulatedPlace,South Africa,-29.721,31.05,0,13318.0,populated_place,8340000.0,7323.0,False,Africa
Africa,3241,City of Ekurhuleni Metropolitan Municipality,PopulatedPlace,South Africa,-26.1667,28.3,1,128112.0,populated_place,1975000000.0,3178470.0,False,Africa
Africa,3242,Cross River State,PopulatedPlace,Nigeria,5.75,8.5,1,255563.0,populated_place,20156000000.0,3737517.0,True,Africa
Africa,3243,Beni Djellil,PopulatedPlace,Algeria,36.5639,4.79472,0,6030.0,populated_place,,8983.0,False,Africa
Africa,3244,Mondeor,PopulatedPlace,South Africa,-26.271,27.998,0,10140.0,populated_place,3710000.0,8021.0,False,Africa
Africa,3245,"Tokai, Cape Town",PopulatedPlace,South Africa,-34.0625,18.4417,1,22817.0,populated_place,1050000.0,2568.0,True,Africa
Africa,3246,"Glencoe, KwaZulu-Natal",PopulatedPlace,South Africa,-28.1833,30.15,0,10050.0,populated_place,26580000.0,17548.0,False,Africa
Africa,3247,Bronkhorstspruit Dam,Dam,South Africa,-25.8875,28.7208,1,9283.0,structure,,,False,Africa
Africa,3248,Gauteng,Region,South Africa,-26.0,28.0,1,833281.0,populated_place,18176000000.0,12272263.0,False,Africa
Africa,3249,Cape St. Francis,PopulatedPlace,South Africa,-34.1969,24.8381,1,31579.0,populated_place,4380000.0,342.0,False,Africa
Africa,3250,Bordj Bou Arréridj,PopulatedPlace,Algeria,36.0667,4.76667,1,17345.0,populated_place,81100000.0,158812.0,True,Africa
Africa,3251,Pongolapoort Dam,Dam,South Africa,-27.4183,32.0714,1,17021.0,structure,,,False,Africa
Africa,3252,Clanwilliam Dam,Dam,South Africa,-32.1847,18.8669,1,9595.0,structure,,,True,Africa
Africa,3253,Melkbosstrand,PopulatedPlace,South Africa,-33.7333,18.4333,1,30980.0,populated_place,35640000.0,11586.0,True,Africa
Africa,3254,Ngong Hills Wind Power Station,PowerStation,Kenya,-1.38111,36.6356,1,8289.0,structure,,,False,Africa
Africa,3255,Bloemhof,PopulatedPlace,South Africa,-27.65,25.59,1,19064.0,populated_place,47330000.0,2339.0,False,Africa
Africa,3256,Rumuruti,PopulatedPlace,Kenya,0.25996,36.5363,0,13020.0,populated_place,,31649.0,False,Africa
Africa,3257,Mount Fletcher,PopulatedPlace,South Africa,-30.692,28.503,0,13897.0,populated_place,9230000.0,11488.0,False,Africa
Africa,3258,Naivasha,PopulatedPlace,Kenya,-0.716667,36.4333,1,59410.0,populated_place,,198444.0,True,Africa
Africa,3259,Barkly West,PopulatedPlace,South Africa,-28.5381,24.5186,1,17947.0,populated_place,73100000.0,20105.0,True,Africa
Africa,3260,Béchar,PopulatedPlace,Algeria,31.6167,-2.21667,1,31863.0,populated_place,5050000000.0,165627.0,False,Africa
Africa,3261,Hoima District,Region,Uganda,1.41667,31.0833,1,17397.0,populated_place,,548800.0,False,Africa
Africa,3262,Ekangala,PopulatedPlace,South Africa,-25.68,28.738,0,10211.0,populated_place,46050000.0,48493.0,True,Africa
Africa,3263,Laikipia County,Region,Kenya,0.0833333,36.6667,1,66147.0,populated_place,8696100000.0,518560.0,False,Africa
Africa,3264,Skikda Province,PopulatedPlace,Algeria,36.8667,6.9,1,10349.0,populated_place,4026000000.0,904195.0,False,Africa
Africa,3265,"El Tor, Egypt",PopulatedPlace,Egypt,28.2417,33.6222,1,30667.0,populated_place,,32877.0,False,Africa
Africa,3266,Nairobi,PopulatedPlace,Kenya,-1.28639,36.8172,1,2371378.0,populated_place,696100000.0,4397073.0,False,Africa
Africa,3267,UMhlabuyalingana Local Municipality,PopulatedPlace,South Africa,-27.0167,32.7333,1,13879.0,populated_place,3964000000.0,156736.0,True,Africa
Africa,3268,Lesedi Local Municipality,PopulatedPlace,South Africa,-26.5,28.5,1,14102.0,populated_place,1484000000.0,99520.0,False,Africa
Africa,3269,Masindi District,Region,Uganda,1.68333,31.7333,1,13239.0,populated_place,,352400.0,True,Africa
Africa,3270,"Balfour, Mpumalanga",PopulatedPlace,South Africa,-26.65,28.5833,1,16286.0,populated_place,12060000.0,3201.0,False,Africa
Africa,3271,Protea Glen,PopulatedPlace,South Africa,-26.2804,27.8204,0,21100.0,populated_place,13120000.0,75634.0,False,Africa
Africa,3272,Mqanduli,PopulatedPlace,South Africa,-31.8167,28.75,0,9569.0,populated_place,9880000.0,2647.0,False,Africa
Africa,3273,Kisii County,Region,Kenya,-0.666667,34.75,1,39117.0,populated_place,1317900000.0,1266860.0,False,Africa
Africa,3274,Masii,PopulatedPlace,Kenya,-1.47,37.43,0,6490.0,populated_place,,2501.0,False,Africa
Africa,3275,Lobito,PopulatedPlace,Angola,-12.3667,13.5333,1,41727.0,populated_place,2562000000.0,393079.0,False,Africa
Africa,3276,Grootvlei Power Station,PowerStation,South Africa,-26.7667,28.5,0,8458.0,structure,,,False,Africa
Africa,3277,Bothaville,PopulatedPlace,South Africa,-27.3833,26.6167,1,22431.0,populated_place,43000000.0,46030.0,True,Africa
Africa,3278,Western Cape,Region,South Africa,-34.0,20.0,1,639318.0,populated_place,129462000000.0,5822734.0,False,Africa
Africa,3279,Masiphumelele,PopulatedPlace,South Africa,-34.1167,18.3667,1,18374.0,populated_place,390000.0,15969.0,False,Africa
Africa,3280,Nakuru,PopulatedPlace,Kenya,-0.3,36.0667,1,126216.0,populated_place,,570674.0,True,Africa
Africa,3281,Malumfashi,PopulatedPlace,Nigeria,11.8,7.61667,1,12307.0,populated_place,674000000.0,182920.0,False,Africa
Africa,3282,Fraserburg,PopulatedPlace,South Africa,-31.9144,21.5119,1,12418.0,populated_place,98880000.0,3029.0,False,Africa
Africa,3283,Mpumalanga,Region,South Africa,-26.0,30.0,1,340045.0,populated_place,76495000000.0,4039939.0,False,Africa
Africa,3284,Mallawi,PopulatedPlace,Egypt,27.7319,30.8411,1,17538.0,populated_place,,152198.0,False,Africa
Africa,3285,De Rust,PopulatedPlace,South Africa,-33.4667,22.5167,1,11552.0,populated_place,17630000.0,3566.0,False,Africa
Africa,3286,"Carolina, Mpumalanga",PopulatedPlace,South Africa,-26.067,30.117,0,18654.0,populated_place,14660000.0,16846.0,False,Africa
Africa,3287,"Bantry Bay, Cape Town",PopulatedPlace,South Africa,-33.9275,18.3803,1,22175.0,populated_place,380000.0,820.0,False,Africa
Africa,3288,Isimba Hydroelectric Power Station,Dam,Uganda,0.771667,33.0422,0,12516.0,structure,,,False,Africa
Africa,3289,Nyamira County,Region,Kenya,-0.75,35.0,1,32826.0,populated_place,912500000.0,605576.0,False,Africa
Africa,3290,Botrivier,PopulatedPlace,South Africa,-34.2258,19.205,0,9673.0,populated_place,1930000.0,5505.0,False,Africa
Africa,3291,Nebbi District,Region,Uganda,2.45,31.25,1,11316.0,populated_place,1953200000.0,346200.0,False,Africa
Africa,3292,Cofimvaba,PopulatedPlace,South Africa,-32.0025,27.5806,0,16833.0,populated_place,21190000.0,8783.0,False,Africa
Africa,3293,Iganga District,Region,Uganda,0.6,33.5,1,17844.0,populated_place,,499600.0,False,Africa
Africa,3294,Moqhaka Local Municipality,PopulatedPlace,South Africa,-27.65,27.2333,1,10850.0,populated_place,7925000000.0,160532.0,False,Africa
Africa,3295,Benguela Province,Region,Angola,-12.6667,14.0167,1,19060.0,populated_place,39826000000.0,2231385.0,False,Africa
Africa,3296,Buffelsbaai,PopulatedPlace,South Africa,-34.0833,22.9667,1,7269.0,populated_place,820000.0,71.0,True,Africa
Africa,3297,"Bahati, Nairobi",PopulatedPlace,Kenya,-1.28,36.85,0,8898.0,populated_place,,55082.0,True,Africa
Africa,3298,"Rosebank, Gauteng",PopulatedPlace,South Africa,-26.1453,28.0406,1,37594.0,populated_place,1420000.0,1085.0,False,Africa
Africa,3299,Mécheria,PopulatedPlace,Algeria,33.55,-0.283333,1,16365.0,populated_place,,120312.0,False,Africa
Africa,3300,KaXu Solar One,PowerStation,South Africa,-28.8811,19.5931,0,5861.0,structure,,,False,Africa
Africa,3301,Mpophomeni,PopulatedPlace,South Africa,-29.567,30.182,1,5972.0,populated_place,4580000.0,25732.0,True,Africa
Africa,3302,Garies,PopulatedPlace,South Africa,-30.5578,17.9894,1,10220.0,populated_place,69440000.0,2105.0,False,Africa
Africa,3303,Qena Governorate,PopulatedPlace,Egypt,26.209,32.768,1,35422.0,populated_place,9565000000.0,3224000.0,False,Africa
Africa,3304,Tsolo,PopulatedPlace,South Africa,-31.3167,28.75,0,26942.0,populated_place,46740000.0,7794.0,True,Africa
Africa,3305,Makapanstad,PopulatedPlace,South Africa,-25.239,28.116,0,9292.0,populated_place,20450000.0,15076.0,False,Africa
Africa,3306,Huambo,PopulatedPlace,Angola,-12.7767,15.7347,1,49950.0,populated_place,2711000000.0,713134.0,False,Africa
Africa,3307,Modjadjiskloof,PopulatedPlace,South Africa,-23.7,30.1333,0,11987.0,populated_place,2990000.0,1815.0,False,Africa
Africa,3308,Brakpan,PopulatedPlace,South Africa,-26.2353,28.37,1,53602.0,populated_place,182810000.0,73080.0,False,Africa
Africa,3309,"Ennerdale, Gauteng",PopulatedPlace,South Africa,-26.4097,27.8369,0,15341.0,populated_place,21330000.0,71815.0,True,Africa
Africa,3310,"Minya, Egypt",PopulatedPlace,Egypt,28.1194,30.7444,1,75326.0,populated_place,,256732.0,False,Africa
Africa,3311,Bulambuli District,Region,Uganda,1.36667,34.15,1,7724.0,populated_place,,125400.0,False,Africa
Africa,3312,Sodwana Bay,BodyOfWater,South Africa,-27.5333,32.6833,1,24374.0,natural_place,,,False,Africa
Africa,3313,Witwatersrand,MountainRange,South Africa,-26.2036,28.0428,1,176758.0,natural_place,,,False,Africa
Africa,3314,Loskop Dam,Dam,South Africa,-25.4169,29.3503,0,12216.0,structure,,,False,Africa
Africa,3315,Annaba Province,PopulatedPlace,Algeria,36.9,7.76667,1,14795.0,populated_place,1439000000.0,640050.0,False,Africa
Africa,3316,"Boki, Nigeria",PopulatedPlace,Nigeria,6.27389,9.01,1,23499.0,populated_place,2771000000.0,186611.0,False,Africa
Africa,3317,Manenberg,PopulatedPlace,South Africa,-33.9833,18.55,1,41450.0,populated_place,3350000.0,52877.0,False,Africa
Africa,3318,"Delmas, Mpumalanga",PopulatedPlace,South Africa,-26.15,28.6833,0,32104.0,populated_place,8740000.0,7399.0,False,Africa
Africa,3319,Emthanjeni Local Municipality,PopulatedPlace,South Africa,-30.6667,24.0,1,6881.0,populated_place,13472000000.0,42356.0,False,Africa
Africa,3320,Breede Valley Local Municipality,PopulatedPlace,South Africa,-33.6667,19.5,1,13111.0,populated_place,3833000000.0,166825.0,False,Africa
Africa,3321,Jozini Local Municipality,PopulatedPlace,South Africa,-27.4292,32.0667,1,8906.0,populated_place,3442000000.0,186502.0,False,Africa
Africa,3322,"Bethanie, North West",PopulatedPlace,South Africa,-25.554,27.606,1,7633.0,populated_place,27870000.0,8429.0,False,Africa
Africa,3323,Koeberg Nuclear Power Station,PowerStation,South Africa,-33.6764,18.432,1,107983.0,structure,,,False,Africa
Africa,3324,Msambweni,PopulatedPlace,Kenya,-4.47,39.48,1,16647.0,populated_place,,11985.0,False,Africa
Africa,3325,"Lichtenburg, North West",PopulatedPlace,South Africa,-26.15,26.1667,1,46514.0,populated_place,108900000.0,26338.0,False,Africa
Africa,3326,Jinja District,Region,Uganda,0.5,33.2,1,15856.0,populated_place,,501300.0,False,Africa
Africa,3327,"Tonga, Mpumalanga",PopulatedPlace,South Africa,-25.675,31.877,0,7098.0,populated_place,7470000.0,17333.0,False,Africa
Africa,3328,Cuanza Norte Province,Region,Angola,-9.01667,15.0667,1,10346.0,populated_place,24110000000.0,443386.0,False,Africa
Africa,3329,Mkhondo Local Municipality,PopulatedPlace,South Africa,-26.55,29.1667,1,11639.0,populated_place,4882000000.0,171982.0,False,Africa
Africa,3330,Rukiga District,Region,Uganda,-1.18333,30.1,0,8446.0,populated_place,426300000.0,100726.0,False,Africa
Africa,3331,"Lukaya, Uganda",PopulatedPlace,Uganda,-0.150833,31.8744,0,5783.0,populated_place,,24250.0,True,Africa
Africa,3332,Enugu South,PopulatedPlace,Nigeria,6.4,7.5,1,13915.0,populated_place,67000000.0,198723.0,True,Africa
Africa,3333,Mohlakeng,PopulatedPlace,South Africa,-26.2256,27.6969,0,11080.0,populated_place,7200000.0,55033.0,False,Africa
Africa,3334,Nababeep,PopulatedPlace,South Africa,-29.59,17.784,0,7443.0,populated_place,123130000.0,5374.0,True,Africa
Africa,3335,"Western Region, Uganda",Region,Uganda,-0.65,30.6833,1,46870.0,populated_place,55276600000.0,8874862.0,False,Africa
Africa,3336,Tipaza Province,PopulatedPlace,Algeria,36.5833,2.43333,1,12195.0,populated_place,2166000000.0,617661.0,False,Africa
Africa,3337,Lake Albert (Africa),River,Uganda,1.68333,30.9167,1,83258.0,natural_place,5300000000.0,,False,Africa
Africa,3338,Aïn Témouchent,PopulatedPlace,Algeria,35.3,-1.13333,1,18939.0,populated_place,78930000.0,75558.0,False,Africa
Africa,3339,Zuurbekom,PopulatedPlace,South Africa,-26.3,27.7833,0,9075.0,populated_place,,3449.0,False,Africa
Africa,3340,Groot Winterhoek,Mountain,South Africa,-33.03,19.1047,1,5944.0,natural_place,,,True,Africa
Africa,3341,Van Reenen,PopulatedPlace,South Africa,-28.376,29.381,1,7540.0,populated_place,480000.0,78.0,False,Africa
Africa,3342,"Capital Park, Pretoria",PopulatedPlace,South Africa,-25.7272,28.1886,1,9210.0,populated_place,3420000.0,8094.0,False,Africa
Africa,3343,Zemmouri,PopulatedPlace,Algeria,36.7833,3.6,1,6822.0,populated_place,,26408.0,False,Africa
Africa,3344,Dokolo District,Region,Uganda,1.91667,33.1667,1,6700.0,populated_place,1072800000.0,183400.0,True,Africa
Africa,3345,Mbale District,Region,Uganda,0.95,34.3333,1,17965.0,populated_place,,441300.0,False,Africa
Africa,3346,"Blairgowrie, Gauteng",PopulatedPlace,South Africa,-26.1164,28.0094,0,8195.0,populated_place,4190000.0,12049.0,False,Africa
Africa,3347,Mityana District,Region,Uganda,0.45,32.05,1,13268.0,populated_place,,311600.0,False,Africa
Africa,3348,Greater Cairo,PopulatedPlace,Egypt,30.05,31.3667,1,136138.0,populated_place,,20901000.0,False,Africa
Africa,3349,Munsieville,PopulatedPlace,South Africa,-26.075,27.753,0,11553.0,populated_place,1550000.0,19128.0,False,Africa
Africa,3350,Steelpoort,PopulatedPlace,South Africa,-24.73,30.2,0,20352.0,populated_place,3110000.0,1105.0,False,Africa
Africa,3351,Hartbeespoort Dam,Dam,South Africa,-25.7256,27.8483,1,84250.0,structure,,,False,Africa
Africa,3352,UMshwathi Local Municipality,PopulatedPlace,South Africa,-29.4314,30.5806,1,8429.0,populated_place,1818000000.0,106374.0,False,Africa
Africa,3353,Britannia Bay,PopulatedPlace,South Africa,-32.717,17.954,0,6762.0,populated_place,1490000.0,210.0,False,Africa
Africa,3354,Three Anchor Bay,PopulatedPlace,South Africa,-33.9083,18.3958,1,8473.0,populated_place,290000.0,2225.0,False,Africa
Africa,3355,Suez,PopulatedPlace,Egypt,29.9667,32.55,1,206221.0,populated_place,250400000.0,744189.0,False,Africa
Africa,3356,Mwingi,PopulatedPlace,Kenya,-0.933333,38.05,1,23148.0,populated_place,,15970.0,False,Africa
Africa,3357,Moroto Town,PopulatedPlace,Uganda,2.53,34.67,1,11541.0,populated_place,,16300.0,True,Africa
Africa,3358,Kusile Power Station,PowerStation,South Africa,-25.9164,28.9172,1,57246.0,structure,,,False,Africa
Africa,3359,"Blackheath, Gauteng",PopulatedPlace,South Africa,-26.1333,27.9667,0,5011.0,populated_place,1020000.0,2407.0,True,Africa
Africa,3360,City of Cape Town,PopulatedPlace,South Africa,-34.0,18.5,1,143400.0,populated_place,2445000000.0,3740026.0,True,Africa
Africa,3361,Borg El Arab,PopulatedPlace,Egypt,30.8489,29.6117,1,19942.0,populated_place,,113209.0,False,Africa
Africa,3362,Algoa Bay,BodyOfWater,South Africa,-33.8333,25.8333,1,43546.0,natural_place,,,False,Africa
Africa,3363,Luanda Province,Region,Angola,-8.983,13.283,1,35784.0,populated_place,18835000000.0,6945386.0,False,Africa
Africa,3364,Constantine Province,PopulatedPlace,Algeria,36.35,6.6,1,20001.0,populated_place,2187000000.0,1012643.0,False,Africa
Africa,3365,Madadeni,PopulatedPlace,South Africa,-27.75,30.062,0,15086.0,populated_place,27960000.0,119497.0,False,Africa
Africa,3366,Phalaborwa,PopulatedPlace,South Africa,-23.9333,31.1167,1,75519.0,populated_place,193330000.0,13108.0,False,Africa
Africa,3367,Geidam,PopulatedPlace,Nigeria,12.7167,12.0333,0,7084.0,populated_place,4357000000.0,157295.0,True,Africa
Africa,3368,Moses Kotane Local Municipality,PopulatedPlace,South Africa,-25.1667,26.8333,1,13411.0,populated_place,5719000000.0,242554.0,False,Africa
Africa,3369,Caxito,PopulatedPlace,Angola,-8.58,13.6642,1,7856.0,populated_place,167000000.0,77276.0,False,Africa
Africa,3370,Pretoria,PopulatedPlace,South Africa,-25.7461,28.1881,1,1570663.0,populated_place,687540000.0,741651.0,False,Africa
Africa,3371,Demsa,PopulatedPlace,Nigeria,9.41667,12.1333,0,7763.0,populated_place,,180251.0,False,Africa
Africa,3372,KwaZulu-Natal,Region,South Africa,-30.5764,30.5764,1,730749.0,populated_place,94361000000.0,11100000.0,True,Africa
Africa,3373,Craighall,PopulatedPlace,South Africa,-26.1143,28.0256,0,6121.0,populated_place,1370000.0,2639.0,False,Africa
Africa,3374,Mookgophong,PopulatedPlace,South Africa,-24.5167,28.7167,0,13280.0,populated_place,27180000.0,24853.0,False,Africa
Africa,3375,"Epe, Lagos State",PopulatedPlace,Nigeria,6.58333,3.98333,1,6907.0,populated_place,965000000.0,181409.0,False,Africa
Africa,3376,Mokopane,PopulatedPlace,South Africa,-24.1839,29.0128,1,54146.0,populated_place,75130000.0,30151.0,False,Africa
Africa,3377,Isingiro District,Region,Uganda,-0.833333,30.8333,1,15860.0,populated_place,2655600000.0,420200.0,False,Africa
Africa,3378,Bethulie,PopulatedPlace,South Africa,-30.4667,25.9667,1,16988.0,populated_place,37000000.0,6497.0,False,Africa
Africa,3379,Siwa Oasis,PopulatedPlace,Egypt,29.2053,25.5194,1,557702.0,populated_place,,32741.0,False,Africa
Africa,3380,"Lindley, Free State",PopulatedPlace,South Africa,-27.8667,27.9167,1,13101.0,populated_place,23000000.0,12000.0,False,Africa
Africa,3381,Lotus Gardens,PopulatedPlace,South Africa,-25.7486,28.0856,0,10113.0,populated_place,2570000.0,10547.0,False,Africa
Africa,3382,Mashi,PopulatedPlace,Nigeria,13.1,8.0,0,6591.0,populated_place,905000000.0,173134.0,False,Africa
Africa,3383,Lake Chew Bahir,Lake,Kenya,4.71667,36.95,1,9848.0,natural_place,,,False,Africa
Africa,3384,Timimoun,PopulatedPlace,Algeria,29.2628,-0.238889,1,17295.0,populated_place,,33060.0,False,Africa
Africa,3385,Lwandle,PopulatedPlace,South Africa,-34.1211,18.8654,0,6319.0,populated_place,1210000.0,19818.0,False,Africa
Africa,3386,Babura,PopulatedPlace,Nigeria,12.6333,8.96667,0,7982.0,populated_place,992000000.0,208101.0,False,Africa
Africa,3387,Ugwunagbo,PopulatedPlace,Nigeria,4.98447,7.32578,0,6049.0,populated_place,108000000.0,97710.0,False,Africa
Africa,3388,Msunduzi Local Municipality,PopulatedPlace,South Africa,-29.6167,30.3833,1,21175.0,populated_place,634000000.0,618536.0,True,Africa
Africa,3389,Mossel Bay,PopulatedPlace,South Africa,-34.1833,22.1333,1,144639.0,populated_place,36800000.0,99000.0,True,Africa
Africa,3390,Motswedi,PopulatedPlace,South Africa,-25.279,25.885,0,5795.0,populated_place,4540000.0,2794.0,False,Africa
Africa,3391,"El Wak, Kenya",PopulatedPlace,Kenya,2.80278,40.9275,1,10763.0,populated_place,,60732.0,False,Africa
Africa,3392,Albert Falls Dam,Dam,South Africa,-29.4361,30.3883,0,6620.0,structure,,,True,Africa
Africa,3393,Oguta Lake,Lake,Nigeria,5.70667,6.7925,1,17574.0,natural_place,,,False,Africa
Africa,3394,Umzimkhulu Local Municipality,PopulatedPlace,South Africa,-30.2625,29.9208,1,10946.0,populated_place,2435000000.0,180302.0,False,Africa
Africa,3395,Homa Bay,PopulatedPlace,Kenya,-0.516667,34.45,1,24280.0,populated_place,,44949.0,False,Africa
Africa,3396,Medupi Power Station,PowerStation,South Africa,-23.7,27.55,1,79038.0,structure,,,True,Africa
Africa,3397,"St Cyprian's Cathedral, Kimberley",HistoricBuilding,South Africa,-28.7425,24.7706,1,5047.0,structure,,,False,Africa
Africa,3398,Sterkspruit,PopulatedPlace,South Africa,-30.524,27.37,1,23878.0,populated_place,4020000.0,1893.0,False,Africa
Africa,3399,UMdoni Local Municipality,PopulatedPlace,South Africa,-30.2833,30.75,1,7775.0,populated_place,252000000.0,78875.0,False,Africa
Africa,3400,Rouxville,PopulatedPlace,South Africa,-30.4167,26.8333,1,8750.0,populated_place,16820000.0,780.0,False,Africa
Africa,3401,Bultfontein,PopulatedPlace,South Africa,-28.2869,26.1506,1,12173.0,populated_place,44000000.0,23365.0,False,Africa
Africa,3402,Sandton,PopulatedPlace,South Africa,-26.107,28.0517,1,260977.0,populated_place,143540000.0,222415.0,False,Africa
Africa,3403,Bergrivier Local Municipality,PopulatedPlace,South Africa,-32.75,18.75,1,10307.0,populated_place,4407000000.0,61897.0,False,Africa
Africa,3404,Dawakin Tofa,PopulatedPlace,Nigeria,12.1028,8.33139,0,7770.0,populated_place,479000000.0,247875.0,False,Africa
Africa,3405,"Saïda, Algeria",PopulatedPlace,Algeria,34.8333,0.15,1,19582.0,populated_place,75620000.0,142497.0,False,Africa
Africa,3406,Fune,PopulatedPlace,Nigeria,11.8833,11.9,0,8816.0,populated_place,4948000000.0,300760.0,False,Africa
Africa,3407,"Schoonoord, South Africa",PopulatedPlace,South Africa,-24.749,30.01,0,5428.0,populated_place,12360000.0,7556.0,True,Africa
Africa,3408,Vredenburg,PopulatedPlace,South Africa,-32.9064,17.9958,1,34854.0,populated_place,13750000.0,38382.0,True,Africa
Africa,3409,Bouïra,PopulatedPlace,Algeria,36.3667,3.90139,1,10515.0,populated_place,127550000.0,88801.0,False,Africa
Africa,3410,Médéa Province,PopulatedPlace,Algeria,36.2667,2.75,1,10639.0,populated_place,8866000000.0,830943.0,False,Africa
Africa,3411,Hofmeyr,PopulatedPlace,South Africa,-31.6333,25.8,1,7507.0,populated_place,16900000.0,3680.0,False,Africa
Africa,3412,Paulpietersburg,PopulatedPlace,South Africa,-27.4167,30.8167,1,17390.0,populated_place,36560000.0,1859.0,False,Africa
Africa,3413,Ou Raadsaal,Building,South Africa,-25.7472,28.1878,1,9319.0,structure,,,False,Africa
Africa,3414,Lake Mariout,Lake,Egypt,31.1531,29.8986,1,39729.0,natural_place,50000000.0,,False,Africa
Africa,3415,Bloemhof Dam,Dam,South Africa,-27.6708,25.6278,1,12047.0,structure,,,False,Africa
Africa,3416,Umjindi Local Municipality,PopulatedPlace,South Africa,-25.75,31.0,1,6199.0,populated_place,1745000000.0,69577.0,False,Africa
Africa,3417,Rustenburg Local Municipality,PopulatedPlace,South Africa,-25.6667,27.3333,1,24496.0,populated_place,3423000000.0,549575.0,False,Africa
Africa,3418,Sagbama,PopulatedPlace,Nigeria,5.16667,6.2,0,10242.0,populated_place,945000000.0,187146.0,True,Africa
Africa,3419,Zagazig,PopulatedPlace,Egypt,30.5667,31.5,1,60266.0,populated_place,,529200.0,False,Africa
Africa,3420,Mahlabathini,PopulatedPlace,South Africa,-30.679,30.162,0,6238.0,populated_place,11430000.0,1665.0,False,Africa
Africa,3421,Genadendal Residence,Building,South Africa,-33.9643,18.4652,1,32775.0,structure,,,False,Africa
Africa,3422,"Salt River, Cape Town",PopulatedPlace,South Africa,-33.9328,18.4575,1,21275.0,populated_place,2750000.0,6577.0,False,Africa
Africa,3423,Benha,PopulatedPlace,Egypt,30.4667,31.1875,1,19611.0,populated_place,,165906.0,False,Africa
Africa,3424,Bir Mourad Raïs,PopulatedPlace,Algeria,36.735,3.045,1,6124.0,populated_place,,45345.0,True,Africa
Africa,3425,"Meadowlands, Gauteng",PopulatedPlace,South Africa,-26.2208,27.8994,0,29704.0,populated_place,11570000.0,138354.0,False,Africa
Africa,3426,Kumi District,Region,Uganda,1.5,33.95,1,9390.0,populated_place,,255500.0,True,Africa
Africa,3427,Mbarara district,PopulatedPlace,Uganda,-0.6,30.6,1,5100.0,populated_place,1846400000.0,445600.0,False,Africa
Africa,3428,Msinga Local Municipality,PopulatedPlace,South Africa,-28.7461,30.4525,1,14446.0,populated_place,2501000000.0,177577.0,False,Africa
Africa,3429,"Northern Region, Uganda",Region,Uganda,2.78333,32.3,1,42947.0,populated_place,85391700000.0,7188139.0,True,Africa
Africa,3430,Coast Province,Region,Kenya,-3.0,39.5,1,67410.0,populated_place,79686100000.0,3325307.0,False,Africa
Africa,3431,Dekernes,PopulatedPlace,Egypt,31.0883,31.5969,1,6072.0,populated_place,,62177.0,True,Africa
Africa,3432,Germiston,PopulatedPlace,South Africa,-26.2178,28.1672,1,99809.0,populated_place,143270000.0,255863.0,False,Africa
Africa,3433,"Mani, Nigeria",PopulatedPlace,Nigeria,12.8561,7.87444,0,6675.0,populated_place,784000000.0,176966.0,False,Africa
Africa,3434,Blouberg (range),Mountain,South Africa,-23.0833,28.85,1,5578.0,natural_place,,,False,Africa
Africa,3435,"Rosebank, Cape Town",PopulatedPlace,South Africa,-33.9556,18.4742,1,9985.0,populated_place,1100000.0,4963.0,False,Africa
Africa,3436,Bori City,PopulatedPlace,Nigeria,4.67278,7.37028,0,7997.0,populated_place,,250000.0,True,Africa
Africa,3437,Ruiru,PopulatedPlace,Kenya,-1.16778,36.9733,1,32753.0,populated_place,,490120.0,False,Africa
Africa,3438,Mnquma Local Municipality,PopulatedPlace,South Africa,-32.3167,28.1333,1,8480.0,populated_place,3270000000.0,252390.0,False,Africa
Africa,3439,El Rehab,PopulatedPlace,Egypt,30.0663,31.4856,1,19411.0,populated_place,,350000.0,False,Africa
Africa,3440,Walker Bay,BodyOfWater,South Africa,-34.5,19.3333,1,13760.0,natural_place,,,False,Africa
Africa,3441,Bouïra Province,PopulatedPlace,Algeria,36.3833,3.9,1,11515.0,populated_place,4439000000.0,694750.0,False,Africa
Africa,3442,Vanderbijlpark,PopulatedPlace,South Africa,-26.6992,27.8356,1,125913.0,populated_place,177840000.0,95840.0,False,Africa
Africa,3443,Greater Tubatse Local Municipality,PopulatedPlace,South Africa,-24.6667,30.3333,1,8283.0,populated_place,4602000000.0,335676.0,False,Africa
Africa,3444,De Waterkant,PopulatedPlace,South Africa,-33.9153,18.4189,1,18981.0,populated_place,300000.0,361.0,False,Africa
Africa,3445,"Arcadia, Pretoria",PopulatedPlace,South Africa,-25.746,28.221,1,22804.0,populated_place,2940000.0,23404.0,False,Africa
Africa,3446,Riviersonderend,PopulatedPlace,South Africa,-34.1503,19.9144,0,9383.0,populated_place,5570000.0,5245.0,True,Africa
Africa,3447,Gamagara Local Municipality,PopulatedPlace,South Africa,-27.6667,23.0,1,6955.0,populated_place,2619000000.0,41617.0,False,Africa
Africa,3448,"Howick, KwaZulu-Natal",PopulatedPlace,South Africa,-29.4667,30.2333,1,47264.0,populated_place,29320000.0,21639.0,False,Africa
Africa,3449,Bonteheuwel,PopulatedPlace,South Africa,-33.951,18.554,1,19271.0,populated_place,3550000.0,45967.0,False,Africa
Africa,3450,Siyancuma Local Municipality,PopulatedPlace,South Africa,-29.0,23.5,1,5657.0,populated_place,16753000000.0,37076.0,False,Africa
Africa,3451,"Brits, North West",PopulatedPlace,South Africa,-25.6344,27.7811,1,75021.0,populated_place,114700000.0,53511.0,False,Africa
Africa,3452,"Richwood, Cape Town",PopulatedPlace,South Africa,-33.832,18.544,0,5878.0,populated_place,770000.0,2988.0,False,Africa
Africa,3453,Dawakin Kudu,PopulatedPlace,Nigeria,11.8347,8.59806,0,6925.0,populated_place,384000000.0,225389.0,False,Africa
Africa,3454,Mmakau,PopulatedPlace,South Africa,-25.605,27.91,0,7240.0,populated_place,17730000.0,36605.0,True,Africa
Africa,3455,"Maitland, Cape Town",PopulatedPlace,South Africa,-33.9247,18.4869,1,17193.0,populated_place,3950000.0,9782.0,True,Africa
Africa,3456,Voëlvlei Dam,Dam,South Africa,-33.3375,19.0336,1,13825.0,structure,,,True,Africa
Africa,3457,Vuwani,PopulatedPlace,South Africa,-23.043,30.386,0,7062.0,populated_place,2700000.0,2791.0,False,Africa
Africa,3458,"Underberg, KwaZulu-Natal",PopulatedPlace,South Africa,-29.7931,29.4947,1,20249.0,populated_place,19710000.0,2694.0,False,Africa
Africa,3459,Modderfontein (East Rand),PopulatedPlace,South Africa,-26.0845,28.1669,0,16418.0,populated_place,27830000.0,131.0,False,Africa
Africa,3460,Teffedest Mountains,Mountain,Algeria,25.0833,5.41667,1,8870.0,natural_place,,,False,Africa
Africa,3461,Sakhisizwe Local Municipality,PopulatedPlace,South Africa,-30.9167,26.6833,1,6510.0,populated_place,2355000000.0,63582.0,False,Africa
Africa,3462,"Lira, Uganda",PopulatedPlace,Uganda,2.24722,32.9,1,33975.0,populated_place,,99059.0,False,Africa
Africa,3463,Standerton,PopulatedPlace,South Africa,-26.95,29.25,1,45211.0,populated_place,17560000.0,10611.0,False,Africa
Africa,3464,Buvuma District,Region,Uganda,0.233333,33.2667,1,9178.0,populated_place,,89890.0,False,Africa
Africa,3465,Kindaruma Hydroelectric Power Station,Dam,Kenya,-0.810556,37.8128,0,7731.0,structure,,,False,Africa
Africa,3466,Upington,PopulatedPlace,South Africa,-28.45,21.25,1,102149.0,populated_place,580800000.0,74834.0,False,Africa
Africa,3467,Michelangelo Towers,Building,South Africa,-26.1064,28.054,1,13151.0,structure,,,False,Africa
Africa,3468,Umuahia,PopulatedPlace,Nigeria,5.53333,7.48333,1,74247.0,populated_place,,359230.0,False,Africa
Africa,3469,"Coligny, North West",PopulatedPlace,South Africa,-26.3333,26.3167,1,11796.0,populated_place,4360000.0,2271.0,True,Africa
Africa,3470,Buhweju District,Region,Uganda,-0.3,30.3333,1,9928.0,populated_place,,120720.0,True,Africa
Africa,3471,Lunda Sul Province,Region,Angola,-10.3167,20.8167,1,8362.0,populated_place,77637000000.0,537587.0,False,Africa
Africa,3472,Wallacedene,PopulatedPlace,South Africa,-33.8583,18.7333,0,6070.0,populated_place,600000.0,10381.0,False,Africa
Africa,3473,Bunyangabu District,Region,Uganda,0.483333,30.2,0,8605.0,populated_place,,171292.0,False,Africa
Africa,3474,Toshka Lakes,BodyOfWater,Egypt,23.1,30.9,1,23986.0,natural_place,,,False,Africa
Africa,3475,"Busia, Kenya",PopulatedPlace,Kenya,0.463333,34.1053,1,25694.0,populated_place,,51981.0,True,Africa
Africa,3476,Motheo District Municipality,PopulatedPlace,South Africa,-29.1167,26.2167,1,8757.0,populated_place,13950200000.0,837379.0,False,Africa
Africa,3477,Sidi Bel Abbès Province,PopulatedPlace,Algeria,35.2,-0.633333,1,11286.0,populated_place,9150630000.0,603369.0,False,Africa
Africa,3478,Béchar Province,PopulatedPlace,Algeria,31.6167,-2.21667,1,12160.0,populated_place,161400000000.0,274866.0,False,Africa
Africa,3479,Ibanda District,Region,Uganda,-0.116667,30.5,1,11930.0,populated_place,964800000.0,255500.0,False,Africa
Africa,3480,Manial Palace and Museum,Building,Egypt,30.0274,31.2298,1,25149.0,structure,,,True,Africa
Africa,3481,Ubuntu Local Municipality,PopulatedPlace,South Africa,-31.3333,23.0,1,6668.0,populated_place,20389000000.0,18601.0,False,Africa
Africa,3482,El Biar,PopulatedPlace,Algeria,36.7691,3.02968,1,12441.0,populated_place,,52582.0,False,Africa
Africa,3483,Oyam District,Region,Uganda,2.23333,32.3833,1,8259.0,populated_place,2190800000.0,378900.0,False,Africa
Africa,3484,Vaal Reefs,PopulatedPlace,South Africa,-26.929,26.736,0,13639.0,populated_place,6150000.0,11345.0,False,Africa
Africa,3485,Bukomansimbi District,Region,Uganda,-0.166667,31.65,1,7484.0,populated_place,,154000.0,False,Africa
Africa,3486,Matzikama Local Municipality,PopulatedPlace,South Africa,-31.25,18.5,1,13612.0,populated_place,12981000000.0,67147.0,True,Africa
Africa,3487,Bela-Bela,PopulatedPlace,South Africa,-24.8833,28.2833,1,89128.0,populated_place,23290000.0,45001.0,False,Africa
Africa,3488,Birchleigh,PopulatedPlace,South Africa,-26.0569,28.2378,0,5300.0,populated_place,4460000.0,10776.0,False,Africa
Africa,3489,Saldanha Bay,BodyOfWater,South Africa,-33.0347,18.0097,1,51925.0,natural_place,,,False,Africa
Africa,3490,Lamu Coal Power Station,PowerStation,Kenya,-2.15361,40.9033,0,12846.0,structure,,,False,Africa
Africa,3491,Narok County,Region,Kenya,-1.25,35.6167,1,57593.0,populated_place,17921200000.0,1157873.0,True,Africa
Africa,3492,"Bertrams, Gauteng",PopulatedPlace,South Africa,-26.1928,28.0661,0,6822.0,populated_place,390000.0,3906.0,False,Africa
Africa,3493,Lenasia,PopulatedPlace,South Africa,-26.3169,27.8278,1,58070.0,populated_place,20280000.0,89714.0,False,Africa
Africa,3494,Ténès,PopulatedPlace,Algeria,36.5122,1.30444,1,14753.0,populated_place,101000000.0,35459.0,False,Africa
Africa,3495,Glenvista,PopulatedPlace,South Africa,-26.2814,28.0472,0,10024.0,populated_place,5360000.0,10177.0,True,Africa
Africa,3496,Renosterberg Local Municipality,PopulatedPlace,South Africa,-30.25,24.5,1,5782.0,populated_place,5527000000.0,10978.0,False,Africa
Africa,3497,Rakai District,Region,Uganda,-0.716667,31.4,1,15625.0,populated_place,,518008.0,False,Africa
Africa,3498,Hussein Dey District,PopulatedPlace,Algeria,36.7443,3.09201,1,5761.0,populated_place,,244879.0,True,Africa
Africa,3499,Richmond Local Municipality,PopulatedPlace,South Africa,-29.8719,30.2719,1,5028.0,populated_place,1256000000.0,65793.0,False,Africa
Africa,3500,Libode,PopulatedPlace,South Africa,-31.5333,29.0167,0,8766.0,populated_place,3930000.0,4560.0,False,Africa
Africa,3501,East Rand,Region,South Africa,-26.1772,28.2219,1,56725.0,populated_place,1975000000.0,3178470.0,False,Africa
Africa,3502,Luweero,PopulatedPlace,Uganda,0.833056,32.4994,1,7799.0,populated_place,,49100.0,False,Africa
Africa,3503,Masinga Hydroelectric Power Station,Dam,Kenya,-0.889167,37.5944,0,22588.0,structure,,,False,Africa
Africa,3504,Kalangala District,Region,Uganda,-0.433333,32.25,1,16094.0,populated_place,9103000000.0,66300.0,False,Africa
Africa,3505,Mpigi District,Region,Uganda,0.233333,32.3333,1,13086.0,populated_place,,215500.0,False,Africa
Africa,3506,Mbarara,PopulatedPlace,Uganda,-0.613333,30.6583,1,73224.0,populated_place,,195013.0,False,Africa
Africa,3507,Malanje Province,Region,Angola,-9.53333,16.35,1,15474.0,populated_place,97602000000.0,986363.0,False,Africa
Africa,3508,Bitterfontein,PopulatedPlace,South Africa,-31.0361,18.2661,0,5913.0,populated_place,39900000.0,986.0,False,Africa
Africa,3509,Tébessa,PopulatedPlace,Algeria,35.4,8.11667,1,33071.0,populated_place,14227000000.0,196537.0,False,Africa
Africa,3510,"Hobhouse, Free State",PopulatedPlace,South Africa,-29.5281,27.1414,1,8696.0,populated_place,12600000.0,244.0,False,Africa
Africa,3511,Ekiti State,PopulatedPlace,Nigeria,7.66667,5.25,1,236467.0,populated_place,6353000000.0,2210957.0,False,Africa
Africa,3512,Qua'an Pan,PopulatedPlace,Nigeria,8.8,9.15,0,18916.0,populated_place,2478000000.0,196929.0,False,Africa
Africa,3513,Madibogo,PopulatedPlace,South Africa,-26.4167,25.1833,0,6776.0,populated_place,49250000.0,22556.0,False,Africa
Africa,3514,Ehlanzeni District Municipality,PopulatedPlace,South Africa,-25.45,30.983,1,27734.0,populated_place,27896000000.0,1688615.0,False,Africa
Africa,3515,Magaliesburg,PopulatedPlace,South Africa,-26.0086,27.5461,1,36903.0,populated_place,11440000.0,6363.0,False,Africa
Africa,3516,Sadat City,PopulatedPlace,Egypt,30.3811,30.5266,1,5115.0,populated_place,625000000.0,79000.0,False,Africa
Africa,3517,Vredefort,PopulatedPlace,South Africa,-27.0167,27.3833,1,18915.0,populated_place,21400000.0,14619.0,False,Africa
Africa,3518,Pearly Beach,PopulatedPlace,South Africa,-34.665,19.501,0,13187.0,populated_place,3920000.0,1042.0,False,Africa
Africa,3519,Colesberg,PopulatedPlace,South Africa,-30.7167,25.1,1,42446.0,populated_place,174840000.0,16869.0,False,Africa
Africa,3520,Kogelberg,Mountain,South Africa,-34.25,18.9167,1,11585.0,natural_place,,,False,Africa
Africa,3521,Mandeni,PopulatedPlace,South Africa,-29.157,31.408,0,15406.0,populated_place,18020000.0,3904.0,False,Africa
Africa,3522,Mumias,PopulatedPlace,Kenya,0.333333,34.4833,0,16494.0,populated_place,,116358.0,False,Africa
Africa,3523,Matjhabeng Local Municipality,PopulatedPlace,South Africa,-27.9667,26.7333,1,17764.0,populated_place,5155000000.0,406461.0,False,Africa
Africa,3524,Sannieshof,PopulatedPlace,South Africa,-26.5333,25.8,0,7079.0,populated_place,5420000.0,11016.0,False,Africa
Africa,3525,Elgeyo-Marakwet County,Region,Kenya,0.8,35.5667,1,48673.0,populated_place,3049700000.0,454480.0,False,Africa
Africa,3526,"Hlanganani, Limpopo",PopulatedPlace,South Africa,-23.195,30.236,0,10796.0,populated_place,9070000.0,7816.0,False,Africa
Africa,3527,Embalenhle,PopulatedPlace,South Africa,-26.546,29.081,0,19922.0,populated_place,19650000.0,118889.0,False,Africa
Africa,3528,"Baraki, Algiers",PopulatedPlace,Algeria,36.6692,3.09528,1,5055.0,populated_place,32000000.0,123101.0,False,Africa
Africa,3529,Enugu,PopulatedPlace,Nigeria,6.45278,7.51111,1,334248.0,populated_place,556000000.0,722664.0,False,Africa
Africa,3530,Umuleri,PopulatedPlace,Nigeria,6.33333,7.83333,1,11709.0,populated_place,,1500000.0,False,Africa
Africa,3531,Qalyubiyya Governorate,PopulatedPlace,Egypt,30.41,31.21,1,12433.0,populated_place,1001000000.0,5703000.0,False,Africa
Africa,3532,"Broadacres, Gauteng",PopulatedPlace,South Africa,-25.9939,27.9914,0,6013.0,populated_place,1410000.0,2598.0,False,Africa
Africa,3533,Skilpadshek,PopulatedPlace,South Africa,-25.2758,25.7142,1,6823.0,populated_place,1190000.0,188.0,False,Africa
Africa,3534,Rietvlei Dam,Dam,South Africa,-25.8767,28.2658,1,11471.0,structure,,,False,Africa
Africa,3535,Machakos,PopulatedPlace,Kenya,-1.51667,37.2667,1,65425.0,populated_place,,150041.0,True,Africa
Africa,3536,Nakasongola District,Region,Uganda,1.3,32.5,1,12663.0,populated_place,3737600000.0,156500.0,True,Africa
Africa,3537,Baardskeerdersbos,PopulatedPlace,South Africa,-34.5889,19.5708,1,7901.0,populated_place,1100000.0,103.0,False,Africa
Africa,3538,88 on Field,Building,South Africa,-29.858,31.0221,0,6757.0,structure,,,False,Africa
Africa,3539,Wakiso Town,PopulatedPlace,Uganda,0.4,32.4825,0,7843.0,populated_place,,87900.0,True,Africa
Africa,3540,"Leslie, Mpumalanga",PopulatedPlace,South Africa,-26.366,28.917,0,7288.0,populated_place,2190000.0,190.0,True,Africa
Africa,3541,Batsari,PopulatedPlace,Nigeria,12.7528,7.24194,0,6176.0,populated_place,1107000000.0,208978.0,False,Africa
Africa,3542,"Magama, Nigeria",PopulatedPlace,Nigeria,10.4667,5.05,0,5264.0,populated_place,4107000000.0,181653.0,False,Africa
Africa,3543,Greater Letaba Local Municipality,PopulatedPlace,South Africa,-23.5,30.25,1,9231.0,populated_place,1891000000.0,212701.0,False,Africa
Africa,3544,Cuando Cubango Province,Region,Angola,-16.0833,19.5,1,21788.0,populated_place,199049000000.0,534002.0,True,Africa
Africa,3545,Makwassie,PopulatedPlace,South Africa,-27.3167,25.9833,0,5803.0,populated_place,6190000.0,13351.0,False,Africa
Africa,3546,Zungeru,PopulatedPlace,Nigeria,9.8,6.15,1,23453.0,populated_place,,24447.0,True,Africa
Africa,3547,Modimolle,PopulatedPlace,South Africa,-24.7,28.4061,0,41479.0,populated_place,74900000.0,8671.0,False,Africa
Africa,3548,Eastern Province (Kenya),Region,Kenya,0.0,38.0,1,49873.0,populated_place,140699000000.0,5668123.0,False,Africa
Africa,3549,Lagos Lagoon,River,Nigeria,6.50158,3.52249,1,43208.0,natural_place,6354700000.0,,False,Africa
Africa,3550,Lake Victoria,Lake,Uganda,-1.0,33.0,1,1181878.0,natural_place,59947000000.0,,False,Africa
Africa,3551,Kenya National Archives,Building,Kenya,-1.2849,36.8259,1,16016.0,structure,,,False,Africa
Africa,3552,Aïn Defla Province,PopulatedPlace,Algeria,36.3167,2.16667,1,11163.0,populated_place,4897000000.0,771890.0,False,Africa
Africa,3553,"Ganda, Angola",PopulatedPlace,Angola,-13.0167,14.6333,0,5296.0,populated_place,4817000000.0,235486.0,False,Africa
Africa,3554,Wamako,PopulatedPlace,Nigeria,13.0378,5.09361,0,6940.0,populated_place,697000000.0,179619.0,False,Africa
Africa,3555,Nama Khoi Local Municipality,PopulatedPlace,South Africa,-29.5,18.0,1,9644.0,populated_place,17989000000.0,47041.0,False,Africa
Africa,3556,Lamu County,Region,Kenya,-2.3,40.7,1,44366.0,populated_place,6273100000.0,143920.0,False,Africa
Africa,3557,Lotus River,PopulatedPlace,South Africa,-34.036,18.513,0,7748.0,populated_place,5010000.0,38143.0,False,Africa
Africa,3558,Djurdjura,Mountain,Algeria,36.4475,4.22833,1,18643.0,natural_place,,,False,Africa
Africa,3559,Bekwarra,PopulatedPlace,Nigeria,6.69389,8.9675,0,10738.0,populated_place,306000000.0,105822.0,False,Africa
Africa,3560,Nandi County,Region,Kenya,0.166667,35.15,1,62638.0,populated_place,2884500000.0,885711.0,False,Africa
Africa,3561,Masaka,PopulatedPlace,Uganda,-0.341111,31.7361,1,49799.0,populated_place,,103829.0,False,Africa
Africa,3562,Yamit,GovernmentalAdministrativeRegion,Egypt,31.2756,34.1672,1,38874.0,populated_place,,0.0,False,Africa
Africa,3563,Calitzdorp,PopulatedPlace,South Africa,-33.5375,21.6853,1,15827.0,populated_place,26330000.0,4284.0,False,Africa
Africa,3564,Boksburg,PopulatedPlace,South Africa,-26.2125,28.2625,1,113437.0,populated_place,162350000.0,260321.0,True,Africa
Africa,3565,Hotazel,PopulatedPlace,South Africa,-27.2,22.95,1,17234.0,populated_place,20080000.0,1756.0,False,Africa
Africa,3566,Mahwelereng,PopulatedPlace,South Africa,-24.15,28.9833,0,8681.0,populated_place,11550000.0,41072.0,False,Africa
Africa,3567,Maracha District,Region,Uganda,3.28333,30.9333,1,7359.0,populated_place,,186134.0,False,Africa
Africa,3568,Mityana,PopulatedPlace,Uganda,0.400556,32.0422,1,15209.0,populated_place,,105200.0,False,Africa
Africa,3569,Ícolo e Bengo,PopulatedPlace,Angola,-9.25,13.7333,1,5852.0,populated_place,3059000000.0,81144.0,False,Africa
Africa,3570,Clocolan,PopulatedPlace,South Africa,-28.9139,27.5669,1,15446.0,populated_place,15800000.0,1349.0,False,Africa
Africa,3571,"Balanga, Nigeria",PopulatedPlace,Nigeria,9.96667,11.6833,0,6158.0,populated_place,1626000000.0,212549.0,True,Africa
Africa,3572,Artscape Theatre Centre,Venue,South Africa,-33.92,18.4305,1,13930.0,structure,,,False,Africa
Africa,3573,Kamuli District,Region,Uganda,0.916667,33.1,1,13145.0,populated_place,,500800.0,False,Africa
Africa,3574,Petrusburg,PopulatedPlace,South Africa,-29.1167,25.4167,0,7332.0,populated_place,16850000.0,944.0,False,Africa
Africa,3575,Bugiri District,Region,Uganda,0.55,33.75,1,11556.0,populated_place,,426800.0,False,Africa
Africa,3576,Cuanza Sul Province,Region,Angola,-10.6333,14.5,1,13890.0,populated_place,55600000000.0,1881873.0,False,Africa
Africa,3577,"Reitz, Free State",PopulatedPlace,South Africa,-27.8,28.4333,1,20486.0,populated_place,25700000.0,20183.0,False,Africa
Africa,3578,Alebtong District,Region,Uganda,2.3,33.3,1,7389.0,populated_place,1527500000.0,225327.0,False,Africa
Africa,3579,Zaria,PopulatedPlace,Nigeria,11.0667,7.7,1,154474.0,populated_place,563000000.0,736000.0,False,Africa
Africa,3580,De Aar,PopulatedPlace,South Africa,-30.65,24.0167,1,39470.0,populated_place,85500000.0,29990.0,False,Africa
Africa,3581,Mitchells Plain,PopulatedPlace,South Africa,-34.0506,18.6181,1,92671.0,populated_place,43760000.0,310485.0,False,Africa
Africa,3582,Lutzville,PopulatedPlace,South Africa,-31.55,18.35,0,8759.0,populated_place,1650000.0,1108.0,True,Africa
Africa,3583,Barrydale,PopulatedPlace,South Africa,-33.9037,20.7217,1,21066.0,populated_place,25770000.0,4156.0,False,Africa
Africa,3584,Maadi,Region,Egypt,29.9667,31.25,1,85877.0,populated_place,,97000.0,True,Africa
Africa,3585,"Walkerville, South Africa",PopulatedPlace,South Africa,-26.42,27.957,1,12046.0,populated_place,97070000.0,9173.0,False,Africa
Africa,3586,"Primrose, South Africa",PopulatedPlace,South Africa,-26.1833,28.1667,1,10546.0,populated_place,4540000.0,14024.0,False,Africa
Africa,3587,"Naledi Local Municipality, North West",PopulatedPlace,South Africa,-26.8333,24.8333,1,7397.0,populated_place,6941000000.0,66781.0,False,Africa
Africa,3588,Glenhazel,PopulatedPlace,South Africa,-26.1428,28.1006,1,8125.0,populated_place,1290000.0,2991.0,False,Africa
Africa,3589,Vaal Mall,Building,South Africa,-26.7094,27.8224,0,5339.0,structure,,,False,Africa
Africa,3590,Zurmi,PopulatedPlace,Nigeria,12.85,6.73333,0,6179.0,populated_place,2834000000.0,293837.0,False,Africa
Africa,3591,Calvinia,PopulatedPlace,South Africa,-31.475,19.7728,1,28298.0,populated_place,132610000.0,2855.0,False,Africa
Africa,3592,Venterstad,PopulatedPlace,South Africa,-30.776,25.8,1,5487.0,populated_place,17600000.0,3596.0,False,Africa
Africa,3593,Mubende,PopulatedPlace,Uganda,0.5575,31.395,1,11730.0,populated_place,,103473.0,False,Africa
Africa,3594,Mtubatuba,PopulatedPlace,South Africa,-28.4167,32.1833,0,19115.0,populated_place,76220000.0,27237.0,False,Africa
Africa,3595,Moorreesburg,PopulatedPlace,South Africa,-33.15,18.6667,1,19647.0,populated_place,27200000.0,7760.0,False,Africa
Africa,3596,"Mpumalanga, KwaZulu-Natal",PopulatedPlace,South Africa,-29.817,30.637,0,13292.0,populated_place,21660000.0,62406.0,False,Africa
Africa,3597,Kaliro District,Region,Uganda,0.9,33.5,1,7115.0,populated_place,1062700000.0,216500.0,False,Africa
Africa,3598,Riebeek West,PopulatedPlace,South Africa,-33.3505,18.8674,1,18561.0,populated_place,3430000.0,4350.0,False,Africa
Africa,3599,Sagamu,PopulatedPlace,Nigeria,6.83333,3.65,1,46151.0,populated_place,614000000.0,253412.0,False,Africa
Africa,3600,Riemvasmaak,PopulatedPlace,South Africa,-28.383,20.083,1,7633.0,populated_place,1040000.0,694.0,False,Africa
Africa,3601,Chrissiesmeer,PopulatedPlace,South Africa,-26.278,30.213,0,8487.0,populated_place,3250000.0,4012.0,True,Africa
Africa,3602,"Richmond, KwaZulu-Natal",PopulatedPlace,South Africa,-29.8667,30.2667,0,14574.0,populated_place,3140000.0,3349.0,False,Africa
Africa,3603,Outeniqua Mountains,Mountain,South Africa,-33.75,23.0,1,30186.0,natural_place,,,False,Africa
Africa,3604,Enugu State,PopulatedPlace,Nigeria,6.5,7.5,1,258162.0,populated_place,7161000000.0,3267837.0,False,Africa
Africa,3605,Gassol,PopulatedPlace,Nigeria,8.4,10.5333,0,8417.0,populated_place,5548000000.0,244749.0,True,Africa
Africa,3606,Moyo Town,PopulatedPlace,Uganda,3.655,31.72,1,5094.0,populated_place,,12100.0,True,Africa
Africa,3607,Delportshoop,PopulatedPlace,South Africa,-28.4167,24.3,0,5176.0,populated_place,67800000.0,10346.0,False,Africa
Africa,3608,El Mahalla El Kubra,PopulatedPlace,Egypt,30.9686,31.1636,1,52006.0,populated_place,15500000.0,535278.0,False,Africa
Africa,3609,Thembisa,PopulatedPlace,South Africa,-26.0055,28.2102,1,10711.0,populated_place,42800000.0,463109.0,False,Africa
Africa,3610,Saint Mary Church (Haret Elroum),HistoricBuilding,Egypt,30.0433,31.2608,0,9681.0,structure,,,True,Africa
Africa,3611,Elundini Local Municipality,PopulatedPlace,South Africa,-31.0778,28.36,1,7568.0,populated_place,5065000000.0,138141.0,True,Africa
Africa,3612,Batna Province,PopulatedPlace,Algeria,35.7833,6.05,1,23341.0,populated_place,12192000000.0,1128030.0,False,Africa
Africa,3613,"Mowbray, Cape Town",PopulatedPlace,South Africa,-33.9461,18.4761,1,19645.0,populated_place,2760000.0,4726.0,False,Africa
Africa,3614,Paul Roux,PopulatedPlace,South Africa,-28.3,27.95,1,17346.0,populated_place,5320000.0,437.0,False,Africa
Africa,3615,Kajiado County,Region,Kenya,-2.0,36.8667,1,75933.0,populated_place,21292700000.0,1117840.0,False,Africa
Africa,3616,Montana Park,PopulatedPlace,South Africa,-25.6876,28.2721,0,10606.0,populated_place,3400000.0,6570.0,False,Africa
Africa,3617,Mpondwe,PopulatedPlace,Uganda,0.04,29.725,0,8451.0,populated_place,,58600.0,False,Africa
Africa,3618,Sidi Okba,PopulatedPlace,Algeria,34.75,5.9,1,5719.0,populated_place,254000000.0,33509.0,False,Africa
Africa,3619,Chott Melrhir,Lake,Algeria,34.3333,6.33333,1,15309.0,natural_place,6700000000.0,,True,Africa
Africa,3620,"Thornton, Cape Town",PopulatedPlace,South Africa,-33.9236,18.5353,1,11406.0,populated_place,1890000.0,4707.0,False,Africa
Africa,3621,Ben Aknoun,PopulatedPlace,Algeria,36.75,3.0,1,5543.0,populated_place,,18838.0,False,Africa
Africa,3622,Potchefstroom,PopulatedPlace,South Africa,-26.715,27.1033,1,201632.0,populated_place,162440000.0,43448.0,True,Africa
Africa,3623,Richtersveld Local Municipality,PopulatedPlace,South Africa,-28.75,17.0,1,8309.0,populated_place,9608000000.0,11982.0,False,Africa
Africa,3624,Mbale,PopulatedPlace,Uganda,1.08056,34.175,1,49743.0,populated_place,,96189.0,False,Africa
Africa,3625,Giza,PopulatedPlace,Egypt,29.987,31.2118,1,516750.0,populated_place,1579750000.0,9200000.0,False,Africa
Africa,3626,Dewetsdorp,PopulatedPlace,South Africa,-29.5833,26.6667,0,9177.0,populated_place,23050000.0,833.0,True,Africa
Africa,3627,Siaya County,Region,Kenya,-0.0833333,34.25,1,61675.0,populated_place,2496100000.0,993183.0,False,Africa
Africa,3628,Houghton Estate,PopulatedPlace,South Africa,-26.15,28.05,1,41401.0,populated_place,6940000.0,7867.0,False,Africa
Africa,3629,Swartberg,Mountain,South Africa,-33.3667,22.3542,1,25163.0,natural_place,,,True,Africa
Africa,3630,Umlazi,PopulatedPlace,South Africa,-29.9667,30.8833,1,85170.0,populated_place,47460000.0,404811.0,False,Africa
Africa,3631,Steve Tshwete Local Municipality,PopulatedPlace,South Africa,-25.8333,29.5833,1,18790.0,populated_place,3976000000.0,229831.0,True,Africa
Africa,3632,UMuziwabantu Local Municipality,PopulatedPlace,South Africa,-30.75,30.4333,1,5939.0,populated_place,1089000000.0,96556.0,True,Africa
Africa,3633,Bela-Bela Local Municipality,PopulatedPlace,South Africa,-24.9167,28.25,1,9913.0,populated_place,3406000000.0,66500.0,False,Africa
Africa,3634,Liboi,PopulatedPlace,Kenya,0.355556,40.8756,0,9039.0,populated_place,,11440.0,True,Africa
Africa,3635,Ras El Tin Palace,Building,Egypt,31.1992,29.8686,1,21344.0,structure,,,False,Africa
Africa,3636,Ntungamo District,Region,Uganda,-0.883333,30.2667,1,13454.0,populated_place,2051000000.0,480100.0,False,Africa
Africa,3637,"Eastern Region, Uganda",Region,Uganda,0.416667,33.2,1,39212.0,populated_place,39478800000.0,9042422.0,False,Africa
Africa,3638,Aberdare Range,MountainRange,Kenya,-0.62765,36.7083,0,49550.0,natural_place,,,False,Africa
Africa,3639,El Bayadh,PopulatedPlace,Algeria,33.6803,1.02028,1,12927.0,populated_place,497000000.0,85577.0,False,Africa
Africa,3640,Amolatar District,Region,Uganda,1.63333,32.8333,1,8767.0,populated_place,1758000000.0,127400.0,False,Africa
Africa,3641,Bab El Oued,PopulatedPlace,Algeria,36.7907,3.04973,1,49928.0,populated_place,11000000.0,214900.0,False,Africa
Africa,3642,"Bade, Nigeria",PopulatedPlace,Nigeria,12.8667,10.9667,0,7382.0,populated_place,772000000.0,139782.0,False,Africa
Africa,3643,Zandspruit,PopulatedPlace,South Africa,-26.059,27.909,0,6938.0,populated_place,1000000.0,31716.0,False,Africa
Africa,3644,Sidi Bel Abbès,PopulatedPlace,Algeria,35.1939,-0.641389,1,52162.0,populated_place,9150630000.0,212935.0,False,Africa
Africa,3645,Desouk,PopulatedPlace,Egypt,31.1422,30.645,1,20331.0,populated_place,,137660.0,True,Africa
Africa,3646,Gomba District,Region,Uganda,-0.183333,31.9167,1,14363.0,populated_place,,152800.0,False,Africa
Africa,3647,Kiambere Hydroelectric Power Station,Dam,Kenya,-0.810556,37.8128,0,7149.0,structure,,,False,Africa
Africa,3648,Azazga,PopulatedPlace,Algeria,36.7453,4.37111,1,7148.0,populated_place,78570000.0,34683.0,False,Africa
Africa,3649,Bauchi,PopulatedPlace,Nigeria,10.3158,9.84417,1,78989.0,populated_place,,694.0,True,Africa
Africa,3650,Mohokare Local Municipality,PopulatedPlace,South Africa,-30.2992,27.0933,1,6416.0,populated_place,8776000000.0,34146.0,True,Africa
Africa,3651,Mthatha,PopulatedPlace,South Africa,-31.5886,28.79,1,119764.0,populated_place,54970000.0,96114.0,False,Africa
Africa,3652,Vaalbank,PopulatedPlace,South Africa,-25.1556,28.8469,1,9054.0,populated_place,4040000.0,12814.0,False,Africa
Africa,3653,Cape Winelands District Municipality,PopulatedPlace,South Africa,-33.3333,19.6667,1,46042.0,populated_place,21473000000.0,787490.0,False,Africa
Africa,3654,Mit Ghamr,PopulatedPlace,Egypt,30.7167,31.25,1,11779.0,populated_place,,116180.0,False,Africa
Africa,3655,Zéralda,PopulatedPlace,Algeria,36.7167,2.85,1,6062.0,populated_place,,51552.0,True,Africa
Africa,3656,Skikda,PopulatedPlace,Algeria,36.8667,6.9,1,51840.0,populated_place,52000000.0,182903.0,False,Africa
Africa,3657,North Eastern Province (Kenya),Region,Kenya,1.0,40.25,1,105027.0,populated_place,127358000000.0,3510757.0,False,Africa
Africa,3658,Turkana County,Region,Kenya,3.15,35.35,1,75079.0,populated_place,68680000000.0,926976.0,True,Africa
Africa,3659,Thulamela Local Municipality,PopulatedPlace,South Africa,-22.95,30.4833,1,18115.0,populated_place,5835000000.0,618462.0,False,Africa
Africa,3660,Kainji Lake,Lake,Nigeria,10.3667,4.55,1,17410.0,natural_place,1243000000.0,,False,Africa
Africa,3661,Garden Route District Municipality,PopulatedPlace,South Africa,-33.75,22.0,1,47514.0,populated_place,23331000000.0,574265.0,False,Africa
Africa,3662,Endumeni Local Municipality,PopulatedPlace,South Africa,-28.1692,30.2269,1,8128.0,populated_place,1610000000.0,64862.0,True,Africa
Africa,3663,Buyende District,Region,Uganda,1.23333,33.15,1,8192.0,populated_place,,265100.0,False,Africa
Africa,3664,Manafwa District,Region,Uganda,1.01667,34.35,1,7784.0,populated_place,,367500.0,False,Africa
Africa,3665,Lehurutshe,PopulatedPlace,South Africa,-25.488,25.974,0,7102.0,populated_place,23110000.0,6888.0,False,Africa
Africa,3666,Hondeklip Bay,PopulatedPlace,South Africa,-30.3167,17.2667,1,12914.0,populated_place,22660000.0,543.0,False,Africa
Africa,3667,Drakensberg Pumped Storage Scheme,Dam,South Africa,-28.5731,29.0869,1,17471.0,structure,,,True,Africa
Africa,3668,"Malaba, Kenya",PopulatedPlace,Kenya,0.635278,34.2753,1,15235.0,populated_place,,7302.0,False,Africa
Africa,3669,Rogo,PopulatedPlace,Nigeria,11.5667,7.83333,0,6272.0,populated_place,802000000.0,350000.0,False,Africa
Africa,3670,Umuahia North,PopulatedPlace,Nigeria,5.5333,7.4833,0,15164.0,populated_place,100000000.0,100660.0,False,Africa
Africa,3671,Lake Bunyonyi,BodyOfWater,Uganda,-1.28333,29.9167,1,33609.0,natural_place,46000000.0,,True,Africa
Africa,3672,Prince Albert Local Municipality,PopulatedPlace,South Africa,-33.0,22.0,1,6129.0,populated_place,8153000000.0,13136.0,True,Africa
Africa,3673,Bedfordview,PopulatedPlace,South Africa,-26.1794,28.1361,1,38097.0,populated_place,11070000.0,13959.0,False,Africa
Africa,3674,De Doorns,PopulatedPlace,South Africa,-33.4833,19.6833,1,16229.0,populated_place,7600000.0,11278.0,False,Africa
Africa,3675,Morgenzon,PopulatedPlace,South Africa,-26.7331,29.6153,0,7202.0,populated_place,4190000.0,1893.0,False,Africa
Africa,3676,Hlabisa,PopulatedPlace,South Africa,-28.1333,31.8667,0,9335.0,populated_place,1810000.0,2469.0,False,Africa
Africa,3677,"Stamford Hill, Durban",PopulatedPlace,South Africa,-29.828,31.031,1,9629.0,populated_place,6090000.0,2585.0,False,Africa
Africa,3678,Sironko District,Region,Uganda,1.23333,34.25,1,8897.0,populated_place,,239600.0,False,Africa
Africa,3679,Mandeni Local Municipality,PopulatedPlace,South Africa,-29.1517,31.4081,1,7625.0,populated_place,545000000.0,138078.0,False,Africa
Africa,3680,Bailundo,PopulatedPlace,Angola,-12.1958,15.8556,1,5564.0,populated_place,7161000000.0,294494.0,False,Africa
Africa,3681,Menouf,PopulatedPlace,Egypt,30.4658,30.9308,1,7006.0,populated_place,18760000.0,97000.0,False,Africa
Africa,3682,Rhino Camp Refugee Settlement,PopulatedPlace,Uganda,2.966,31.395,1,8549.0,populated_place,,123243.0,True,Africa
Africa,3683,Bugiri,PopulatedPlace,Uganda,0.569444,33.7486,1,6319.0,populated_place,,36000.0,False,Africa
Africa,3684,Lake Bogoria,Lake,Kenya,0.25,36.1,1,46694.0,natural_place,,,False,Africa
Africa,3685,Mkhambathini Local Municipality,PopulatedPlace,South Africa,-29.7167,30.5167,1,6268.0,populated_place,891000000.0,63142.0,False,Africa
Africa,3686,Ventersdorp,PopulatedPlace,South Africa,-26.3167,26.8167,1,38335.0,populated_place,53880000.0,4204.0,False,Africa
Africa,3687,Uyo,PopulatedPlace,Nigeria,5.03333,7.91667,1,81642.0,populated_place,362000000.0,427873.0,False,Africa
Africa,3688,City of Tshwane Metropolitan Municipality,PopulatedPlace,South Africa,-25.6667,28.3333,1,162469.0,populated_place,6298000000.0,2921488.0,False,Africa
Africa,3689,Tororo,PopulatedPlace,Uganda,0.692778,34.1817,1,31394.0,populated_place,,41906.0,True,Africa
Africa,3690,Theunissen,PopulatedPlace,South Africa,-28.4,26.7167,1,12545.0,populated_place,9200000.0,1549.0,False,Africa
Africa,3691,"Macassar, Western Cape",PopulatedPlace,South Africa,-34.0667,18.7667,1,23086.0,populated_place,28850000.0,33225.0,False,Africa
Africa,3692,Scottburgh,PopulatedPlace,South Africa,-30.2833,30.75,1,27266.0,populated_place,23800000.0,11403.0,False,Africa
Africa,3693,Bawit,PopulatedPlace,Egypt,27.55,30.7192,1,6253.0,populated_place,500000.0,9516.0,False,Africa
Africa,3694,Luuka District,Region,Uganda,0.7,33.3,1,9333.0,populated_place,,260900.0,False,Africa
Africa,3695,"St. Catherine's Cathedral, Alexandria",HistoricBuilding,Egypt,31.1946,29.8946,1,9482.0,structure,,,False,Africa
Africa,3696,Mukono District,Region,Uganda,0.480556,32.7706,1,22202.0,populated_place,,596804.0,True,Africa
Africa,3697,Umsobomvu Local Municipality,PopulatedPlace,South Africa,-30.8333,25.1667,1,6821.0,populated_place,6819000000.0,28376.0,True,Africa
Africa,3698,Berg River Dam,Dam,South Africa,-33.9024,19.057,1,24327.0,structure,,,False,Africa
Africa,3699,Nkandla homestead,Building,South Africa,-28.844,31.0994,1,40647.0,structure,,,True,Africa
Africa,3700,Zefta,PopulatedPlace,Egypt,30.7142,31.2442,0,7029.0,populated_place,,92667.0,False,Africa
Africa,3701,Majuba Power Station,PowerStation,South Africa,-27.1006,29.7714,0,15225.0,structure,,,False,Africa
Africa,3702,Mtito Andei,PopulatedPlace,Kenya,-2.69,38.17,1,13862.0,populated_place,,4760.0,True,Africa
Africa,3703,Kilifi County,Region,Kenya,-3.66667,39.75,1,55538.0,populated_place,12245900000.0,1453787.0,False,Africa
Africa,3704,"Brooklyn, Pretoria",PopulatedPlace,South Africa,-25.7701,28.2366,1,18506.0,populated_place,2560000.0,4177.0,False,Africa
Africa,3705,Vosburg,PopulatedPlace,South Africa,-30.5667,22.8833,1,7689.0,populated_place,65500000.0,1259.0,False,Africa
Africa,3706,Western Province (Kenya),Region,Kenya,0.5,34.5833,1,49214.0,populated_place,7400400000.0,4334202.0,False,Africa
Africa,3707,Vryheid,PopulatedPlace,South Africa,-27.7669,30.8,1,47376.0,populated_place,48710000.0,47365.0,False,Africa
Africa,3708,Three Rivers Proper,PopulatedPlace,South Africa,-26.664,27.972,1,5802.0,populated_place,3090000.0,2547.0,False,Africa
Africa,3709,Ubuhlebezwe Local Municipality,PopulatedPlace,South Africa,-30.15,30.0833,1,5740.0,populated_place,1604000000.0,101691.0,False,Africa
Africa,3710,Emnambithi-Ladysmith Local Municipality,PopulatedPlace,South Africa,-28.55,29.7833,1,5348.0,populated_place,2965000000.0,237437.0,True,Africa
Africa,3711,Steynsrus,PopulatedPlace,South Africa,-27.95,27.5667,0,5662.0,populated_place,8000000.0,9106.0,True,Africa
Africa,3712,Gonubie,PopulatedPlace,South Africa,-32.943,28.008,0,10800.0,populated_place,10110000.0,11471.0,False,Africa
Africa,3713,Lyantonde District,Region,Uganda,-0.416667,31.1667,1,6428.0,populated_place,,80200.0,True,Africa
Africa,3714,Leydsdorp,PopulatedPlace,South Africa,-23.995,30.521,1,9624.0,populated_place,790000.0,6.0,False,Africa
Africa,3715,Kampala Hospital,ArchitecturalStructure,Uganda,0.333056,32.5844,0,17433.0,structure,,,False,Africa
Africa,3716,Annaba,PopulatedPlace,Algeria,36.9,7.76667,1,163140.0,populated_place,49000000.0,464740.0,False,Africa
Africa,3717,Agago District,Region,Uganda,2.83333,33.3333,1,11043.0,populated_place,3496800000.0,227792.0,False,Africa
Africa,3718,El Harrach,PopulatedPlace,Algeria,36.7211,3.1375,1,9311.0,populated_place,,48869.0,True,Africa
Africa,3719,Matjiesfontein,PopulatedPlace,South Africa,-33.2167,20.5833,1,21605.0,populated_place,1220000.0,422.0,False,Africa
Africa,3720,Dassen Island,Island,South Africa,-33.4234,18.0871,1,17888.0,populated_place,2600000.0,0.0,True,Africa
Africa,3721,John Taolo Gaetsewe District Municipality,PopulatedPlace,South Africa,-27.0,23.0,1,15203.0,populated_place,27283000000.0,224799.0,False,Africa
Africa,3722,Boumerdès Province,PopulatedPlace,Algeria,36.7667,3.48333,1,14689.0,populated_place,1591000000.0,795019.0,False,Africa
Africa,3723,Blue Downs,PopulatedPlace,South Africa,-34.0,18.6975,1,16542.0,populated_place,24570000.0,92330.0,False,Africa
Africa,3724,"Armed Forces Command and Staff College, Jaji",ArchitecturalStructure,Nigeria,10.8236,7.56944,0,26520.0,structure,,,False,Africa
Africa,3725,Riyom,PopulatedPlace,Nigeria,9.56667,8.66667,0,5070.0,populated_place,807000000.0,131557.0,False,Africa
Africa,3726,Sabie,PopulatedPlace,South Africa,-25.0978,30.7792,1,24418.0,populated_place,55030000.0,9148.0,False,Africa
Africa,3727,Kole District,Region,Uganda,2.4,32.8,1,7792.0,populated_place,2847000000.0,231969.0,False,Africa
Africa,3728,Mukono Town,PopulatedPlace,Uganda,0.36,32.75,1,22015.0,populated_place,31400000.0,161996.0,False,Africa
Africa,3729,Bungoma County,Region,Kenya,0.583333,34.5833,1,65242.0,populated_place,2206900000.0,1670570.0,True,Africa
Africa,3730,Nakaseke District,Region,Uganda,0.733333,32.4167,1,13672.0,populated_place,,191100.0,True,Africa
Africa,3731,Gert Sibande District Municipality,PopulatedPlace,South Africa,-26.55,29.1667,1,27706.0,populated_place,31841000000.0,1043194.0,True,Africa
Africa,3732,Mamelodi,PopulatedPlace,South Africa,-25.7022,28.3275,1,94867.0,populated_place,45190000.0,334577.0,False,Africa
Africa,3733,Namutumba District,Region,Uganda,0.35,33.05,1,7673.0,populated_place,,218900.0,False,Africa
Africa,3734,Amudat District,Region,Uganda,1.95,34.95,1,6885.0,populated_place,1615400000.0,143300.0,False,Africa
Africa,3735,"Constantine, Algeria",PopulatedPlace,Algeria,36.35,6.6,1,271441.0,populated_place,2288000000.0,464219.0,False,Africa
Africa,3736,Umzumbe Local Municipality,PopulatedPlace,South Africa,-30.6167,30.55,1,7609.0,populated_place,1259000000.0,160975.0,False,Africa
Africa,3737,"Gravelotte, Limpopo",PopulatedPlace,South Africa,-23.95,30.6167,0,6191.0,populated_place,1980000.0,1098.0,False,Africa
Africa,3738,Uíge,PopulatedPlace,Angola,-7.61667,15.05,1,10406.0,populated_place,1188000000.0,616605.0,False,Africa
Africa,3739,"Bishopscourt, Cape Town",PopulatedPlace,South Africa,-33.9903,18.4458,1,14321.0,populated_place,2310000.0,1603.0,False,Africa
Africa,3740,"Constantia, Cape Town",PopulatedPlace,South Africa,-34.0314,18.4183,1,59095.0,populated_place,23900000.0,12564.0,True,Africa
Africa,3741,Ga-Kgapane,PopulatedPlace,South Africa,-23.649,30.226,0,6126.0,populated_place,3830000.0,9879.0,False,Africa
Africa,3742,Bou Saâda,PopulatedPlace,Algeria,35.2192,4.18167,1,18982.0,populated_place,249340000.0,111787.0,False,Africa
Africa,3743,Bayt Al-Suhaymi,Museum,Egypt,30.0522,31.2625,1,13844.0,structure,,,True,Africa
Africa,3744,"Retreat, Cape Town",PopulatedPlace,South Africa,-34.055,18.4756,1,15734.0,populated_place,5270000.0,25745.0,True,Africa
Africa,3745,Madobi,PopulatedPlace,Nigeria,11.7772,8.28833,0,5749.0,populated_place,273000000.0,136623.0,False,Africa
Africa,3746,Moyo District,Region,Uganda,3.65,31.7167,1,13620.0,populated_place,1800800000.0,194734.0,False,Africa
Africa,3747,Outspan Hotel,Hotel,Kenya,-0.4209,36.9418,0,13605.0,structure,,,True,Africa
Africa,3748,Beni Snous,PopulatedPlace,Algeria,34.643,-1.56145,1,10702.0,populated_place,,11318.0,True,Africa
Africa,3749,Ballito,PopulatedPlace,South Africa,-29.5333,31.2167,1,55106.0,populated_place,22160000.0,19234.0,True,Africa
Africa,3750,Khi Solar One,PowerStation,South Africa,-28.5372,21.0775,1,36862.0,structure,,,True,Africa
Africa,3751,Embu County,Region,Kenya,-0.533333,37.45,1,52354.0,populated_place,2821000000.0,608599.0,False,Africa
Africa,3752,Union Buildings,Building,South Africa,-25.7405,28.212,1,146237.0,structure,,,False,Africa
Africa,3753,Morokweng,PopulatedPlace,South Africa,-26.127,23.775,0,8748.0,populated_place,24170000.0,14260.0,False,Africa
Africa,3754,Wase Rock,Mountain,Nigeria,9.07639,9.95833,1,9895.0,natural_place,,,False,Africa
Africa,3755,Great Kei Local Municipality,PopulatedPlace,South Africa,-32.5917,27.8839,1,6763.0,populated_place,1736000000.0,38991.0,False,Africa
Africa,3756,Bordj Bou Arréridj Province,PopulatedPlace,Algeria,36.0667,4.76667,1,12120.0,populated_place,4115000000.0,661115.0,False,Africa
Africa,3757,Viljoenskroon,PopulatedPlace,South Africa,-27.2167,26.95,1,14903.0,populated_place,12700000.0,2091.0,False,Africa
Africa,3758,Rosetta,PopulatedPlace,Egypt,31.4044,30.4164,1,124147.0,populated_place,,58432.0,False,Africa
Africa,3759,Matsulu,PopulatedPlace,South Africa,-25.515,31.34,1,15288.0,populated_place,17980000.0,47306.0,True,Africa
Africa,3760,Uvongo,PopulatedPlace,South Africa,-30.8167,30.3833,0,9171.0,populated_place,4520000.0,4288.0,False,Africa
Africa,3761,"Mutukula, Uganda",PopulatedPlace,Uganda,-1.0,31.4167,0,10200.0,populated_place,,15000.0,False,Africa
Africa,3762,Nakuru County,Region,Kenya,-0.5,36.0,1,65132.0,populated_place,7509500000.0,2162202.0,False,Africa
Africa,3763,Lucapa,PopulatedPlace,Angola,-8.42278,20.7392,0,6657.0,populated_place,19300000000.0,179020.0,True,Africa
Africa,3764,Mombasa County,Region,Kenya,-4.05,39.6667,1,88085.0,populated_place,294700000.0,1208333.0,False,Africa
Africa,3765,Aïn Témouchent Province,PopulatedPlace,Algeria,35.3,-1.13333,1,8964.0,populated_place,2376890000.0,384565.0,False,Africa
Africa,3766,Velddrif,PopulatedPlace,South Africa,-32.7833,18.1667,1,20764.0,populated_place,8870000.0,11017.0,False,Africa
Africa,3767,Sibasa,PopulatedPlace,South Africa,-22.932,30.467,0,9329.0,populated_place,3390000.0,4314.0,False,Africa
Africa,3768,"Silverton, Pretoria",PopulatedPlace,South Africa,-25.7317,28.3056,1,13796.0,populated_place,4380000.0,9590.0,False,Africa
Africa,3769,Ventersburg,PopulatedPlace,South Africa,-28.0833,27.1333,1,10379.0,populated_place,5200000.0,11260.0,False,Africa
Africa,3770,Enugu East,PopulatedPlace,Nigeria,6.53333,7.53333,1,18415.0,populated_place,383000000.0,279089.0,False,Africa
Africa,3771,Mooinooi,PopulatedPlace,South Africa,-25.75,27.55,0,9431.0,populated_place,5590000.0,4733.0,False,Africa
Africa,3772,Uasin Gishu County,Region,Kenya,0.516667,35.2833,1,68408.0,populated_place,2955300000.0,1163186.0,False,Africa
Africa,3773,Mkuze,PopulatedPlace,South Africa,-27.6167,32.0333,1,17361.0,populated_place,4960000.0,4414.0,False,Africa
Africa,3774,Saxonwold,PopulatedPlace,South Africa,-26.1564,28.0406,0,42691.0,populated_place,2580000.0,2557.0,False,Africa
Africa,3775,Victoria West,PopulatedPlace,South Africa,-31.4031,23.1206,1,19054.0,populated_place,78950000.0,8254.0,False,Africa
Africa,3776,Amathole Mountains,Mountain,South Africa,-32.5806,27.2083,1,8849.0,natural_place,,,False,Africa
Africa,3777,Mthatha Dam,Dam,South Africa,-31.5506,28.74,0,6318.0,structure,,,False,Africa
Africa,3778,Devil's Peak Estate,PopulatedPlace,South Africa,-33.9368,18.4302,1,5462.0,populated_place,460000.0,1859.0,False,Africa
Africa,3779,Franschhoek,PopulatedPlace,South Africa,-33.9167,19.1333,1,112331.0,populated_place,1800000.0,1066.0,False,Africa
Africa,3780,Napak District,Region,Uganda,2.2,34.3,1,6473.0,populated_place,4978400000.0,197700.0,True,Africa
Africa,3781,Bredasdorp,PopulatedPlace,South Africa,-34.5333,20.0417,1,37754.0,populated_place,25150000.0,15524.0,True,Africa
Africa,3782,Tswaing Local Municipality,PopulatedPlace,South Africa,-26.6833,25.4667,1,7084.0,populated_place,5966000000.0,124218.0,False,Africa
Africa,3783,"Morningside, Gauteng",PopulatedPlace,South Africa,-26.0782,28.0625,0,12162.0,populated_place,6240000.0,15723.0,True,Africa
Africa,3784,Bethal,PopulatedPlace,South Africa,-26.45,29.45,0,28663.0,populated_place,51940000.0,60779.0,False,Africa
Africa,3785,"Berea, Durban",PopulatedPlace,South Africa,-29.8508,30.9931,1,23348.0,populated_place,24680000.0,102920.0,False,Africa
Africa,3786,Kikagati Hydroelectric Power Station,Dam,Uganda,-1.0575,30.6592,0,5225.0,structure,,,False,Africa
Africa,3787,Jos East,PopulatedPlace,Nigeria,9.91667,9.1,0,5371.0,populated_place,1020000000.0,85602.0,False,Africa
Africa,3788,"Bassa, Plateau State",PopulatedPlace,Nigeria,10.0833,8.73333,0,11969.0,populated_place,1743000000.0,186859.0,False,Africa
Africa,3789,Babanango,PopulatedPlace,South Africa,-28.3667,31.0833,0,8696.0,populated_place,1410000.0,1886.0,True,Africa
Africa,3790,El Bayadh Province,PopulatedPlace,Algeria,33.6833,1.01667,1,10651.0,populated_place,78870000000.0,262187.0,False,Africa
Africa,3791,Humaithara,PopulatedPlace,Egypt,24.2007,34.6356,1,9060.0,populated_place,,4218.0,False,Africa
Africa,3792,Borgu Local Government Area,PopulatedPlace,Nigeria,9.88333,4.51667,0,10299.0,populated_place,,110000.0,True,Africa
Africa,3793,Umzinyathi District Municipality,PopulatedPlace,South Africa,-28.1667,30.2167,1,15618.0,populated_place,8589000000.0,510838.0,True,Africa
Africa,3794,Barkly East,PopulatedPlace,South Africa,-30.9681,27.5933,1,18265.0,populated_place,16800000.0,9986.0,True,Africa
Africa,3795,Bukedea District,Region,Uganda,1.35,34.05,1,7612.0,populated_place,,186400.0,True,Africa
Africa,3796,Emfuleni Local Municipality,PopulatedPlace,South Africa,-26.6667,27.75,1,36184.0,populated_place,966000000.0,721663.0,False,Africa
Africa,3797,"Nagrig, Egypt",PopulatedPlace,Egypt,30.9667,30.8667,1,94661.0,populated_place,,8656.0,True,Africa
Africa,3798,Brooklyn Mall,ShoppingMall,South Africa,-25.7717,28.2323,0,6879.0,structure,,,False,Africa
Africa,3799,The Pinnacle (Nairobi),Hotel,Kenya,-1.29667,36.8181,1,50338.0,structure,,,False,Africa
Africa,3800,Lunda Norte Province,Region,Angola,-8.28333,19.6,1,13749.0,populated_place,103760000000.0,862566.0,False,Africa
Africa,3801,Mtunzini,PopulatedPlace,South Africa,-28.95,31.75,1,17040.0,populated_place,10430000.0,2199.0,False,Africa
Africa,3802,Mbombela,PopulatedPlace,South Africa,-25.4658,30.9853,1,119816.0,populated_place,72630000.0,110159.0,False,Africa
Africa,3803,Lake Kyoga,Lake,Uganda,1.5,33.0,1,36499.0,natural_place,1720000000.0,,False,Africa
Africa,3804,Kisoro District,Region,Uganda,-1.28333,29.6833,1,14642.0,populated_place,728000000.0,281705.0,True,Africa
Africa,3805,Bordj Badji Mokhtar,PopulatedPlace,Algeria,21.3289,0.954167,1,10446.0,populated_place,,16437.0,False,Africa
Africa,3806,Olkaria V Geothermal Power Station,PowerStation,Kenya,-0.899722,36.3506,1,5699.0,structure,,,False,Africa
Africa,3807,"Camperdown, KwaZulu-Natal",PopulatedPlace,South Africa,-29.7333,30.5333,0,6978.0,populated_place,6200000.0,2101.0,False,Africa
Africa,3808,Bordj El Kiffan,PopulatedPlace,Algeria,36.7375,3.19306,1,7484.0,populated_place,21690000.0,151950.0,False,Africa
Africa,3809,Hottentots Holland Mountains,Mountain,South Africa,-34.0349,18.9851,1,14849.0,natural_place,,,True,Africa
Africa,3810,"Balgowan, KwaZulu-Natal",PopulatedPlace,South Africa,-29.3986,30.0472,1,6459.0,populated_place,3840000.0,980.0,False,Africa
Africa,3811,Tiaret Province,PopulatedPlace,Algeria,35.3833,1.33333,1,10926.0,populated_place,20673000000.0,842060.0,False,Africa
Africa,3812,Tlokwe Local Municipality,PopulatedPlace,South Africa,-26.75,27.1667,1,9652.0,populated_place,2674000000.0,162762.0,False,Africa
Africa,3813,Wajir County,Region,Kenya,1.74722,40.0689,1,44313.0,populated_place,55840600000.0,781263.0,False,Africa
Africa,3814,SAFARI-1,PowerStation,South Africa,-25.8,27.95,1,12715.0,structure,,,True,Africa
Africa,3815,Zaire Province,Region,Angola,-6.26667,14.2333,1,23750.0,populated_place,40130000000.0,594428.0,False,Africa
Africa,3816,Muizenberg,PopulatedPlace,South Africa,-34.105,18.4717,1,66988.0,populated_place,15140000.0,36857.0,False,Africa
Africa,3817,Nalubaale Hydroelectric Power Station,Station,Uganda,0.443611,33.185,1,28452.0,structure,,,False,Africa
Africa,3818,Faith Tabernacle,HistoricBuilding,Nigeria,6.67669,3.16728,0,60142.0,structure,,,False,Africa
Africa,3819,Leeudoringstad,PopulatedPlace,South Africa,-27.2333,26.2333,0,8507.0,populated_place,5630000.0,5054.0,False,Africa
Africa,3820,Brandvlei Dam,Dam,South Africa,-33.7125,19.4158,0,9374.0,structure,,,True,Africa
Africa,3821,Tébessa Province,PopulatedPlace,Algeria,35.4,8.11667,1,6650.0,populated_place,14227000000.0,657227.0,False,Africa
Africa,3822,Kitui County,Region,Kenya,-1.48333,38.3833,1,66873.0,populated_place,30430000000.0,1136187.0,False,Africa
Africa,3823,Shell House (Johannesburg),Building,South Africa,-26.1992,28.0464,0,5670.0,structure,,,False,Africa
Africa,3824,"Zango, Nigeria",PopulatedPlace,Nigeria,12.9333,8.53333,0,8241.0,populated_place,601000000.0,154743.0,False,Africa
Africa,3825,Badagry,PopulatedPlace,Nigeria,6.41667,2.88333,1,93480.0,populated_place,441000000.0,241093.0,False,Africa
Africa,3826,Midmar Dam,Dam,South Africa,-29.5,30.1833,1,14549.0,structure,,,False,Africa
Africa,3827,Tsantsabane Local Municipality,PopulatedPlace,South Africa,-28.25,22.5,1,6156.0,populated_place,18333000000.0,35093.0,False,Africa
Africa,3828,Sebkha el Melah,Lake,Algeria,29.195,-1.2425,1,5230.0,natural_place,,,False,Africa
Africa,3829,Market Theatre (Johannesburg),Station,South Africa,-26.2017,28.0324,1,13875.0,structure,,,True,Africa
Africa,3830,El Khroub,PopulatedPlace,Algeria,36.2667,6.7,1,5086.0,populated_place,244650000.0,179033.0,False,Africa
Africa,3831,Garissa,PopulatedPlace,Kenya,-0.456944,39.6583,1,57898.0,populated_place,,450399.0,False,Africa
Africa,3832,"Strand, Western Cape",PopulatedPlace,South Africa,-34.1167,18.8167,1,63585.0,populated_place,21360000.0,55558.0,False,Africa
Africa,3833,Steynsburg,PopulatedPlace,South Africa,-31.2964,25.8228,1,15051.0,populated_place,17400000.0,7212.0,False,Africa
Africa,3834,Queensburgh,PopulatedPlace,South Africa,-29.8667,30.9333,0,17052.0,populated_place,22880000.0,54846.0,False,Africa
Africa,3835,Moretele Local Municipality,PopulatedPlace,South Africa,-25.1667,28.0833,1,11423.0,populated_place,1379000000.0,186947.0,False,Africa
Africa,3836,Minna,PopulatedPlace,Nigeria,9.61389,6.55694,1,60292.0,populated_place,,304113.0,True,Africa
Africa,3837,Madibeng Local Municipality,PopulatedPlace,South Africa,-25.4167,27.75,1,6942.0,populated_place,3839000000.0,477381.0,False,Africa
Africa,3838,Vredendal,PopulatedPlace,South Africa,-31.6644,18.5061,1,25096.0,populated_place,23080000.0,18170.0,False,Africa
Africa,3839,Salt Rock,PopulatedPlace,South Africa,-29.503,31.2389,1,18240.0,populated_place,4910000.0,1806.0,False,Africa
Africa,3840,UMngeni Local Municipality,PopulatedPlace,South Africa,-29.4892,30.2269,1,8491.0,populated_place,1567000000.0,92710.0,False,Africa
Africa,3841,Achwa 2 Hydroelectric Power Station,Dam,Uganda,3.135,32.5208,0,5701.0,structure,,,True,Africa
Africa,3842,Caesareum of Alexandria,HistoricBuilding,Egypt,31.2009,29.8994,1,25564.0,structure,,,False,Africa
Africa,3843,Mogalakwena Local Municipality,PopulatedPlace,South Africa,-23.8333,28.6667,1,14860.0,populated_place,6166000000.0,307682.0,False,Africa
Africa,3844,Nyanza Province,Region,Kenya,-0.5,34.6667,1,65272.0,populated_place,12477100000.0,5442711.0,False,Africa
Africa,3845,Budaka District,Region,Uganda,1.0,33.9,1,7683.0,populated_place,,178900.0,False,Africa
Africa,3846,Lime Acres,PopulatedPlace,South Africa,-28.374,23.461,0,6567.0,populated_place,70370000.0,4408.0,False,Africa
Africa,3847,Gharbia Governorate,PopulatedPlace,Egypt,30.867,31.028,1,126453.0,populated_place,1942000000.0,5066000.0,True,Africa
Africa,3848,Umbogintwini,PopulatedPlace,South Africa,-30.0167,30.8833,0,5801.0,populated_place,5470000.0,105.0,True,Africa
Africa,3849,Vorna Valley,PopulatedPlace,South Africa,-25.9983,28.1072,1,6168.0,populated_place,3440000.0,12446.0,False,Africa
Africa,3850,Arua District,Region,Uganda,3.0,31.1667,1,22385.0,populated_place,,776700.0,False,Africa
Africa,3851,Abdeen Palace,Building,Egypt,30.0417,31.2483,1,71975.0,structure,,,False,Africa
Africa,3852,Bishop Lavis,PopulatedPlace,South Africa,-33.9486,18.5758,1,14637.0,populated_place,2580000.0,26482.0,False,Africa
Africa,3853,Aïn M'lila,PopulatedPlace,Algeria,36.0361,6.57083,1,6909.0,populated_place,,88441.0,True,Africa
Africa,3854,Kween District,Region,Uganda,1.41667,34.5167,1,8347.0,populated_place,,103300.0,False,Africa
Africa,3855,Vleesbaai,PopulatedPlace,South Africa,-34.292,21.914,1,10396.0,populated_place,1050000.0,194.0,False,Africa
Africa,3856,Vanderkloof Dam,Dam,South Africa,-29.9922,24.7317,1,20826.0,structure,,,False,Africa
Africa,3857,Mostaganem,PopulatedPlace,Algeria,35.9333,0.0833333,1,37374.0,populated_place,50000000.0,245330.0,False,Africa
Africa,3858,Bida,PopulatedPlace,Nigeria,9.08333,6.01667,0,38804.0,populated_place,1698000000.0,266008.0,False,Africa
Africa,3859,"Sig, Algeria",PopulatedPlace,Algeria,35.5278,-0.186111,1,7723.0,populated_place,,70499.0,False,Africa
Africa,3860,Bomet,PopulatedPlace,Kenya,-0.783333,35.35,1,21624.0,populated_place,,110963.0,False,Africa
Africa,3861,Bakoven,PopulatedPlace,South Africa,-33.963,18.382,1,7213.0,populated_place,1350000.0,2209.0,False,Africa
Africa,3862,Isiolo County,Region,Kenya,0.883333,38.6667,1,41851.0,populated_place,25336100000.0,268002.0,False,Africa
Africa,3863,Arewa House,Building,Nigeria,10.5531,7.4458,1,5288.0,structure,,,False,Africa
Africa,3864,"Saint Catherine, Egypt",PopulatedPlace,Egypt,28.55,33.9333,1,127611.0,populated_place,,9000.0,False,Africa
Africa,3865,Jebba Hydroelectric Power Station,Dam,Nigeria,9.13556,4.78778,0,8111.0,structure,,,False,Africa
Africa,3866,Entebbe,PopulatedPlace,Uganda,0.05,32.46,1,228109.0,populated_place,56200000.0,69958.0,False,Africa
Africa,3867,Watoto Church,HistoricBuilding,Uganda,0.318985,32.575,1,21221.0,structure,,,False,Africa
Africa,3868,Moreleta Park,PopulatedPlace,South Africa,-25.825,28.2917,0,11338.0,populated_place,10010000.0,27539.0,True,Africa
Africa,3869,"Avoca, Durban",PopulatedPlace,South Africa,-29.7678,31.0195,0,5089.0,populated_place,2530000.0,7568.0,False,Africa
Africa,3870,Lydenburg,PopulatedPlace,South Africa,-25.096,30.446,1,49148.0,populated_place,17310000.0,37258.0,False,Africa
Africa,3871,Kibuku District,Region,Uganda,1.03333,33.8333,1,5874.0,populated_place,,181700.0,False,Africa
Africa,3872,Bié Province,Region,Angola,-12.5167,17.5667,1,16748.0,populated_place,70314000000.0,1455255.0,False,Africa
Africa,3873,Mandera County,Region,Kenya,3.41667,40.6667,1,43870.0,populated_place,25797700000.0,2300000.0,False,Africa
Africa,3874,Lokoja,PopulatedPlace,Nigeria,7.80194,6.74417,1,68806.0,populated_place,3180000000.0,692050.0,False,Africa
Africa,3875,"Busia, Uganda",PopulatedPlace,Uganda,0.466944,34.09,1,17089.0,populated_place,,64900.0,True,Africa
Africa,3876,Zombo District,Region,Uganda,2.5,30.9,1,11183.0,populated_place,897600000.0,219800.0,False,Africa
Africa,3877,Church of St. George (Cairo),HistoricBuilding,Egypt,30.0064,31.2301,1,21801.0,structure,,,False,Africa
Africa,3878,Pretoria North,PopulatedPlace,South Africa,-25.6731,28.1733,1,22917.0,populated_place,6160000.0,12972.0,False,Africa
Africa,3879,Menongue,PopulatedPlace,Angola,-14.6556,17.6842,0,12314.0,populated_place,23500000000.0,320914.0,False,Africa
Africa,3880,Cathedral of Our Lady of Egypt,HistoricBuilding,Egypt,30.0637,31.3406,1,10195.0,structure,,,False,Africa
Africa,3881,"Mangu, Nigeria",PopulatedPlace,Nigeria,9.43333,9.13333,0,14041.0,populated_place,1653000000.0,294931.0,False,Africa
Africa,3882,Hoedspruit,PopulatedPlace,South Africa,-24.35,30.9667,0,56492.0,populated_place,24130000.0,3157.0,True,Africa
Africa,3883,Little Brak River (town),PopulatedPlace,South Africa,-34.0878,22.1478,1,5153.0,populated_place,3450000.0,2037.0,False,Africa
Africa,3884,Yunusari,PopulatedPlace,Nigeria,13.1167,11.7333,0,5011.0,populated_place,3790000000.0,125821.0,False,Africa
Africa,3885,"Hydra, Algeria",PopulatedPlace,Algeria,36.7472,3.04028,1,11366.0,populated_place,,35727.0,False,Africa
Africa,3886,Apac District,Region,Uganda,1.98333,32.5333,1,9717.0,populated_place,3255900000.0,349000.0,False,Africa
Africa,3887,El Kurdi,PopulatedPlace,Egypt,31.1429,31.7826,0,5107.0,populated_place,12800000.0,42651.0,False,Africa
Africa,3888,Umvoti Local Municipality,PopulatedPlace,South Africa,-29.0636,30.5889,1,6409.0,populated_place,2516000000.0,103093.0,False,Africa
Africa,3889,Apac,PopulatedPlace,Uganda,1.985,32.535,1,17016.0,populated_place,,67700.0,False,Africa
Africa,3890,Mitooma District,Region,Uganda,-0.6,30.0,1,10021.0,populated_place,542800000.0,196300.0,False,Africa
Africa,3891,"Sali, Algeria",PopulatedPlace,Algeria,25.9606,-0.0275,1,5694.0,populated_place,,13138.0,True,Africa
Africa,3892,Blida,PopulatedPlace,Algeria,36.4686,2.83194,1,54453.0,populated_place,72100000.0,182447.0,False,Africa
Africa,3893,Makueni County,Region,Kenya,-1.8,37.6167,1,59568.0,populated_place,8008900000.0,987653.0,True,Africa
Africa,3894,"Government House, Port Harcourt",Building,Nigeria,4.77667,7.01639,0,9855.0,structure,,,False,Africa
Africa,3895,Enoch Mgijima Local Municipality,PopulatedPlace,South Africa,-31.719,26.319,1,12327.0,populated_place,13584000000.0,245975.0,False,Africa
Africa,3896,Baragoi,PopulatedPlace,Kenya,1.78333,36.7833,1,8168.0,populated_place,,20000.0,False,Africa
Africa,3897,Bir el Ater,Region,Algeria,34.7486,8.05806,1,5723.0,populated_place,1522000000.0,77727.0,False,Africa
Africa,3898,Pringle Bay,PopulatedPlace,South Africa,-34.35,18.8167,1,18485.0,populated_place,3260000.0,801.0,False,Africa
Africa,3899,"Claremont, Cape Town",PopulatedPlace,South Africa,-33.9806,18.4653,1,39026.0,populated_place,5210000.0,17198.0,False,Africa
Africa,3900,Sondu Miriu Hydroelectric Power Station,Dam,Kenya,-0.3425,34.8522,0,9810.0,structure,,,True,Africa
Africa,3901,Saint Mark Coptic Orthodox Church (Heliopolis),HistoricBuilding,Egypt,30.0925,31.3297,1,7037.0,structure,,,False,Africa
Africa,3902,Lake Nakuru,Lake,Kenya,-0.366667,36.0833,1,106846.0,natural_place,,,True,Africa
Africa,3903,Redstone Solar Thermal Power,PowerStation,South Africa,-28.3,23.35,0,8628.0,structure,,,False,Africa
Africa,3904,"Sandhurst, Gauteng",PopulatedPlace,South Africa,-26.1125,28.04,0,11858.0,populated_place,2450000.0,2471.0,False,Africa
Africa,3905,Loeriesfontein,PopulatedPlace,South Africa,-30.95,19.4333,1,14661.0,populated_place,34460000.0,2744.0,False,Africa
Africa,3906,Loiyangalani,PopulatedPlace,Kenya,2.75774,36.7187,0,10907.0,populated_place,,5117.0,False,Africa
Africa,3907,Bab Ezzouar,PopulatedPlace,Algeria,36.7217,3.18528,1,11361.0,populated_place,8020000.0,96597.0,False,Africa
Africa,3908,Mbaitoli,PopulatedPlace,Nigeria,5.58778,7.05,1,24099.0,populated_place,204000000.0,237555.0,False,Africa
Africa,3909,Sterkstroom,PopulatedPlace,South Africa,-31.5667,26.55,1,7760.0,populated_place,21100000.0,7165.0,False,Africa
Africa,3910,"Derby, North West",PopulatedPlace,South Africa,-25.9,27.0333,1,6415.0,populated_place,1780000.0,3471.0,False,Africa
Africa,3911,Witbank Dam,Dam,South Africa,-25.8909,29.3054,1,6903.0,structure,,,False,Africa
Africa,3912,Roodeplaat Dam,Dam,South Africa,-25.6208,28.3714,1,13207.0,structure,,,True,Africa
Africa,3913,Tindouf,PopulatedPlace,Algeria,27.6753,-8.12861,1,61976.0,populated_place,70009000000.0,150000.0,False,Africa
Africa,3914,Blyderivierpoort Dam,Dam,South Africa,-24.5367,30.7981,1,5984.0,structure,,,False,Africa
Africa,3915,Machadodorp,PopulatedPlace,South Africa,-25.6667,30.25,1,22968.0,populated_place,33170000.0,8835.0,False,Africa
Africa,3916,Bapsfontein,PopulatedPlace,South Africa,-26.0,28.4333,0,11522.0,populated_place,4280000.0,707.0,False,Africa
Africa,3917,Bir al-Abd,PopulatedPlace,Egypt,31.0181,33.0111,1,6021.0,populated_place,,87219.0,False,Africa
Africa,3918,Carletonville,PopulatedPlace,South Africa,-26.3581,27.3981,0,36827.0,populated_place,35140000.0,23000.0,False,Africa
Africa,3919,Manfalut,PopulatedPlace,Egypt,27.3167,30.9667,0,6007.0,populated_place,,82585.0,False,Africa
Africa,3920,Bungeni,PopulatedPlace,South Africa,-23.206,30.224,1,15061.0,populated_place,10940000.0,23000.0,False,Africa
Africa,3921,"Stella, North West",PopulatedPlace,South Africa,-26.55,24.8667,0,9591.0,populated_place,9060000.0,890.0,True,Africa
Africa,3922,False Bay,BodyOfWater,South Africa,-34.2297,18.6453,1,97776.0,natural_place,,,False,Africa
Africa,3923,Malamulele,PopulatedPlace,South Africa,-22.9711,30.6736,0,37436.0,populated_place,9570000.0,13070.0,False,Africa
Africa,3924,Udenu,PopulatedPlace,Nigeria,6.91667,7.51667,0,14110.0,populated_place,248000000.0,178466.0,True,Africa
Africa,3925,Azaadville,PopulatedPlace,South Africa,-26.1717,27.7493,0,6384.0,populated_place,4990000.0,10292.0,True,Africa
Africa,3926,Boumerdès,PopulatedPlace,Algeria,36.7603,3.47237,1,13339.0,populated_place,,41685.0,True,Africa
Africa,3927,"Celestial City, Imeko",HistoricBuilding,Nigeria,7.45235,2.83941,0,17384.0,structure,,,False,Africa
Africa,3928,Grabouw,PopulatedPlace,South Africa,-34.15,19.0167,1,26329.0,populated_place,6650000.0,44593.0,False,Africa
Africa,3929,Saïda Province,PopulatedPlace,Algeria,34.8333,0.15,1,8982.0,populated_place,6764000000.0,328685.0,True,Africa
Africa,3930,Brandfort,PopulatedPlace,South Africa,-28.7014,26.4589,1,20103.0,populated_place,27100000.0,3143.0,False,Africa
Africa,3931,Awka,PopulatedPlace,Nigeria,6.20694,7.06778,1,79284.0,populated_place,522000000.0,399300.0,False,Africa
Africa,3932,Grootdraai Dam,Dam,South Africa,-26.9192,29.2981,0,6459.0,structure,,,True,Africa
Africa,3933,Bududa District,Region,Uganda,1.01667,34.3333,1,10140.0,populated_place,,210173.0,False,Africa
Africa,3934,Bekkersdal,PopulatedPlace,South Africa,-26.2667,27.7,1,9897.0,populated_place,27900000.0,47213.0,False,Africa
Africa,3935,Masaka District,Region,Uganda,-0.366667,31.7,1,18492.0,populated_place,,251600.0,False,Africa
Africa,3936,Koboko District,Region,Uganda,3.41667,30.9667,1,9601.0,populated_place,759700000.0,236900.0,False,Africa
Africa,3937,Kalungu District,Region,Uganda,-0.1,31.8167,1,7715.0,populated_place,,177200.0,False,Africa
Africa,3938,Umzimvubu Local Municipality,PopulatedPlace,South Africa,-32.1667,28.5833,1,8125.0,populated_place,2577000000.0,191620.0,False,Africa
Africa,3939,Nakivale Refugee Settlement,PopulatedPlace,Uganda,-0.8,30.9,1,19317.0,populated_place,185000000.0,109820.0,False,Africa
Africa,3940,Mutual Building,Building,South Africa,-33.9242,18.4222,1,14116.0,structure,,,False,Africa
Africa,3941,"Rosslyn, Gauteng",PopulatedPlace,South Africa,-25.625,28.089,1,31032.0,populated_place,890000.0,2960.0,False,Africa
Africa,3942,Bomet County,Region,Kenya,-0.8,35.2333,1,41030.0,populated_place,1630000000.0,875689.0,False,Africa
Africa,3943,Soutpansberg,MountainRange,South Africa,-23.0,29.8667,1,20625.0,natural_place,,,True,Africa
Africa,3944,South African State Theatre,Venue,South Africa,-25.7468,28.1949,1,5186.0,structure,,,False,Africa
Africa,3945,Lone Hill,PopulatedPlace,South Africa,-26.012,28.027,0,8843.0,populated_place,5090000.0,11145.0,True,Africa
Africa,3946,UMhlathuze Local Municipality,PopulatedPlace,South Africa,-28.75,31.9,1,14952.0,populated_place,793000000.0,334459.0,True,Africa
Africa,3947,Baringo County,Region,Kenya,0.666667,36.0,1,48868.0,populated_place,11075300000.0,666763.0,False,Africa
Africa,3948,Graskop,PopulatedPlace,South Africa,-24.9317,30.8417,1,26740.0,populated_place,35010000.0,3996.0,False,Africa
Africa,3949,Thohoyandou,PopulatedPlace,South Africa,-22.95,30.4833,1,79875.0,populated_place,42620000.0,69453.0,False,Africa
Africa,3950,Bosmont,PopulatedPlace,South Africa,-26.1886,27.9556,0,7595.0,populated_place,6130000.0,6301.0,False,Africa
Africa,3951,Valdezia,PopulatedPlace,South Africa,-23.107,30.189,0,9271.0,populated_place,16410000.0,7516.0,False,Africa
Africa,3952,"Monument Park, Pretoria",PopulatedPlace,South Africa,-25.8,28.2333,0,5295.0,populated_place,3280000.0,5692.0,False,Africa
Africa,3953,Jos North,PopulatedPlace,Nigeria,9.91667,8.9,0,22976.0,populated_place,291000000.0,729300.0,False,Africa
Africa,3954,Mabeskraal,PopulatedPlace,South Africa,-25.196,26.803,0,5252.0,populated_place,20100000.0,9282.0,False,Africa
Africa,3955,Vrede,PopulatedPlace,South Africa,-27.43,29.16,1,19042.0,populated_place,50100000.0,17689.0,True,Africa
Africa,3956,"Virginia, Free State",PopulatedPlace,South Africa,-28.1064,26.8622,0,26064.0,populated_place,82100000.0,66208.0,False,Africa
Africa,3957,Robben Island,Island,South Africa,-33.805,18.37,1,524017.0,populated_place,5180000.0,116.0,False,Africa
Africa,3958,"Epping, Cape Town",PopulatedPlace,South Africa,-33.9342,18.5436,0,8594.0,populated_place,6180000.0,50.0,False,Africa
Africa,3959,"Sandown, Gauteng",PopulatedPlace,South Africa,-26.098,28.06,0,14359.0,populated_place,3740000.0,6354.0,False,Africa
Africa,3960,Tipaza,PopulatedPlace,Algeria,36.5919,2.44944,1,42594.0,populated_place,,25225.0,False,Africa
Africa,3961,Ussa,PopulatedPlace,Nigeria,7.11667,10.0833,0,6742.0,populated_place,1495000000.0,92017.0,False,Africa
Africa,3962,Tissemsilt,PopulatedPlace,Algeria,35.6078,1.81111,1,5976.0,populated_place,,75197.0,False,Africa
Africa,3963,Mopa-Muro,PopulatedPlace,Nigeria,8.09722,5.89583,0,5964.0,populated_place,901000000.0,44037.0,False,Africa
Africa,3964,North West (South African province),Region,South Africa,-27.0,26.0,1,255959.0,populated_place,104882000000.0,3509953.0,True,Africa
Africa,3965,Gilf Kebir,Mountain,Egypt,23.4414,25.8397,1,32180.0,natural_place,,,False,Africa
Africa,3966,Tsakane,PopulatedPlace,South Africa,-26.35,28.3667,1,36336.0,populated_place,19750000.0,135994.0,False,Africa
Africa,3967,Ugu District Municipality,PopulatedPlace,South Africa,-30.75,30.4333,1,29456.0,populated_place,5047000000.0,722484.0,True,Africa
Africa,3968,Relizane Province,PopulatedPlace,Algeria,35.7333,0.55,1,11764.0,populated_place,4870000000.0,733060.0,False,Africa
Africa,3969,Yzerfontein,PopulatedPlace,South Africa,-33.333,18.162,1,27865.0,populated_place,6680000.0,2170.0,False,Africa
Africa,3970,Batagarawa,PopulatedPlace,Nigeria,12.9,7.61667,0,5274.0,populated_place,433000000.0,184575.0,True,Africa
Africa,3971,Lake Wamala,BodyOfWater,Uganda,0.345556,31.8878,1,5551.0,natural_place,250000000.0,,True,Africa
Africa,3972,Treetops Hotel,Hotel,Kenya,-0.36,36.9006,1,141558.0,structure,,,False,Africa
Africa,3973,Stilbaai,PopulatedPlace,South Africa,-34.3683,21.4111,1,28951.0,populated_place,25480000.0,3514.0,False,Africa
Africa,3974,Bakori,PopulatedPlace,Nigeria,11.55,7.43333,0,11270.0,populated_place,679000000.0,641576.0,False,Africa
Africa,3975,Collo,PopulatedPlace,Algeria,37.0056,6.56028,1,14808.0,populated_place,24000000.0,35682.0,False,Africa
Africa,3976,"Linden, Gauteng",PopulatedPlace,South Africa,-26.135,27.992,0,11745.0,populated_place,4040000.0,8629.0,True,Africa
Africa,3977,"Umbilo, Durban",PopulatedPlace,South Africa,-29.8864,30.9778,0,7110.0,populated_place,3010000.0,11311.0,False,Africa
Africa,3978,Luweero District,Region,Uganda,0.833333,32.5,1,19729.0,populated_place,,458158.0,False,Africa
Africa,3979,Bokkos,PopulatedPlace,Nigeria,9.25,8.88333,1,11067.0,populated_place,1682000000.0,178454.0,True,Africa
Africa,3980,Mbombela Local Municipality,PopulatedPlace,South Africa,-25.4167,30.9167,1,21595.0,populated_place,5394000000.0,588794.0,False,Africa
Africa,3981,Rosettenville,PopulatedPlace,South Africa,-26.2514,28.0553,0,23731.0,populated_place,2290000.0,17319.0,False,Africa
Africa,3982,West Pokot County,Region,Kenya,1.23333,35.1167,1,40596.0,populated_place,8418200000.0,621241.0,False,Africa
Africa,3983,Mascara Province,PopulatedPlace,Algeria,35.4,0.133333,1,12584.0,populated_place,5941000000.0,780959.0,False,Africa
Africa,3984,Nakasongola,PopulatedPlace,Uganda,1.315,32.465,1,5720.0,populated_place,,11700.0,False,Africa
Africa,3985,Saulsville,PopulatedPlace,South Africa,-25.777,28.05,0,6589.0,populated_place,8660000.0,105208.0,False,Africa
Africa,3986,Aïn Oussera,PopulatedPlace,Algeria,35.4489,2.90444,1,5333.0,populated_place,,134174.0,False,Africa
Africa,3987,Mombasa Island,Island,Kenya,-4.05,39.6667,1,28204.0,populated_place,5300000.0,146334.0,False,Africa
Africa,3988,Garsfontein,PopulatedPlace,South Africa,-25.7913,28.2935,0,10071.0,populated_place,7300000.0,19501.0,False,Africa
Africa,3989,"Eerste River, Western Cape",PopulatedPlace,South Africa,-34.0,18.7167,0,21973.0,populated_place,5860000.0,39237.0,True,Africa
Africa,3990,Bebeji,PopulatedPlace,Nigeria,11.6667,8.26667,0,6880.0,populated_place,717000000.0,188859.0,False,Africa
Africa,3991,Roodepoort,PopulatedPlace,South Africa,-26.1625,27.8725,1,82521.0,populated_place,161500000.0,326416.0,False,Africa
Africa,3992,Lake Elmenteita,Lake,Kenya,-0.45,36.25,1,29303.0,natural_place,18000000.0,,True,Africa
Africa,3993,Louis Trichardt,PopulatedPlace,South Africa,-23.05,29.9,1,77700.0,populated_place,56420000.0,25360.0,True,Africa
Africa,3994,"Moria, Limpopo",PopulatedPlace,South Africa,-23.938,29.791,0,8040.0,populated_place,5060000.0,2887.0,False,Africa
Africa,3995,"Clifton, Cape Town",PopulatedPlace,South Africa,-33.9399,18.3759,1,67516.0,populated_place,610000.0,507.0,False,Africa
Africa,3996,Vihiga County,Region,Kenya,0.0666667,34.6667,1,30725.0,populated_place,531300000.0,590013.0,False,Africa
Africa,3997,Dennilton,PopulatedPlace,South Africa,-25.256,29.164,0,13351.0,populated_place,10880000.0,2408.0,False,Africa
Africa,3998,Huíla Province,Region,Angola,-14.25,14.8333,1,18213.0,populated_place,79023000000.0,2497422.0,False,Africa
Africa,3999,Saldanha Bay Local Municipality,PopulatedPlace,South Africa,-33.0,18.25,1,16795.0,populated_place,2015000000.0,99193.0,False,Africa
Africa,4000,Ringim,PopulatedPlace,Nigeria,12.2833,9.46667,0,8283.0,populated_place,1057000000.0,192024.0,False,Africa
Africa,4001,Migori County,Region,Kenya,-0.666667,34.8333,1,55878.0,populated_place,2586400000.0,1116436.0,True,Africa
Africa,4002,Assiut Barrage,Dam,Egypt,27.2029,31.1902,1,8150.0,structure,,,False,Africa
Africa,4003,Kamwenge District,Region,Uganda,0.236389,30.4917,1,14472.0,populated_place,2439400000.0,249100.0,False,Africa
Africa,4004,Aïn El Turk,PopulatedPlace,Algeria,35.7408,-0.749167,1,7195.0,populated_place,,50000.0,True,Africa
Africa,4005,Badplaas,PopulatedPlace,South Africa,-25.9539,30.5667,1,20768.0,populated_place,37970000.0,582.0,True,Africa
Africa,4006,Sabon Birni,PopulatedPlace,Nigeria,13.5611,6.325,0,8544.0,populated_place,2354000000.0,207599.0,False,Africa
Africa,4007,Birnin Kebbi,PopulatedPlace,Nigeria,12.4536,4.20028,1,29781.0,populated_place,,125594.0,True,Africa
Africa,4008,Volksrust,PopulatedPlace,South Africa,-27.3667,29.8833,1,24323.0,populated_place,25430000.0,24281.0,False,Africa
Africa,4009,Bayt Al-Razzaz palace,Building,Egypt,30.0375,31.2592,1,5308.0,structure,,,False,Africa
Africa,4010,Robertsham,PopulatedPlace,South Africa,-26.2464,28.0103,0,5198.0,populated_place,3430000.0,6727.0,False,Africa
Africa,4011,Mamusa Local Municipality,PopulatedPlace,South Africa,-27.25,25.25,1,8312.0,populated_place,3615000000.0,60355.0,False,Africa
Africa,4012,Daveyton,PopulatedPlace,South Africa,-26.1386,28.425,0,44042.0,populated_place,14450000.0,127967.0,False,Africa
Africa,4013,Gachie,PopulatedPlace,Kenya,-1.22,36.78,0,5648.0,populated_place,,27487.0,False,Africa
Africa,4014,Matatiele Local Municipality,PopulatedPlace,South Africa,-32.1667,28.5833,1,10398.0,populated_place,4352000000.0,203843.0,False,Africa
Africa,4015,Ga-Molepo,PopulatedPlace,South Africa,-24.033,29.799,0,8960.0,populated_place,5430000.0,4048.0,False,Africa
Africa,4016,10th of Ramadan (city),PopulatedPlace,Egypt,30.3065,31.7415,1,42066.0,populated_place,94760000.0,511987.0,True,Africa
Africa,4017,Leeu-Gamka,PopulatedPlace,South Africa,-32.7736,21.9803,1,8999.0,populated_place,11500000.0,2727.0,False,Africa
Africa,4018,Apapa,PopulatedPlace,Nigeria,6.45,3.36667,1,83869.0,populated_place,,217362.0,False,Africa
Africa,4019,Gateway Theatre of Shopping,ShoppingMall,South Africa,-29.7256,31.0665,1,42459.0,structure,,,False,Africa
Africa,4020,Nag Hammadi,PopulatedPlace,Egypt,26.05,32.25,1,78493.0,populated_place,,42820.0,True,Africa
Africa,4021,Umzimkhulu,PopulatedPlace,South Africa,-30.263,29.94,0,17720.0,populated_place,4550000.0,8399.0,False,Africa
Africa,4022,Luxor Governorate,PopulatedPlace,Egypt,25.6833,32.65,1,39865.0,populated_place,2960000000.0,1270000.0,False,Africa
Africa,4023,Petrus Steyn,PopulatedPlace,South Africa,-27.65,28.1333,1,11611.0,populated_place,11000000.0,12893.0,False,Africa
Africa,4024,Vaal Barrage,Dam,South Africa,-26.7647,27.6917,0,6689.0,structure,,,False,Africa
Asia,1610,"Gopalpur, Odisha",PopulatedPlace,India,19.27,84.92,1,108857.0,populated_place,,7221.0,False,Asia
Asia,1611,Modasa,PopulatedPlace,India,23.47,73.3,1,50783.0,populated_place,13470000.0,67648.0,False,Asia
Asia,1612,Quan Âm Pagoda (Ho Chi Minh City),HistoricBuilding,Vietnam,10.7541,106.66,1,7418.0,structure,,,False,Asia
Asia,1613,Ruteng,PopulatedPlace,Indonesia,-8.61265,120.463,0,11350.0,populated_place,136260000.0,41533.0,True,Asia
Asia,1614,Ghoti Budruk,PopulatedPlace,India,19.7167,73.6333,1,5836.0,populated_place,5000000.0,24838.0,False,Asia
Asia,1615,Peddapuram,PopulatedPlace,India,17.08,82.13,1,51867.0,populated_place,41130000.0,49477.0,True,Asia
Asia,1616,Guangdong,Region,China,23.4,113.5,1,1712072.0,populated_place,179800000000.0,126012510.0,False,Asia
Asia,1617,President's Pavilion,Building,Sri Lanka,7.26389,80.6403,1,5788.0,structure,,,False,Asia
Asia,1618,Phagi,PopulatedPlace,India,26.6,75.95,1,19769.0,populated_place,1114310000.0,161610.0,False,Asia
Asia,1619,Santirbazar,PopulatedPlace,India,23.3,91.55,1,6130.0,populated_place,,15647.0,True,Asia
Asia,1620,Bijolia,PopulatedPlace,India,25.164,75.325,1,29467.0,populated_place,,12384.0,False,Asia
Asia,1621,Batiaghata Upazila,PopulatedPlace,Bangladesh,22.0,89.0,0,9201.0,populated_place,248330000.0,128184.0,False,Asia
Asia,1622,Achin District,Region,Afghanistan,34.0894,70.683,1,22755.0,populated_place,,95468.0,True,Asia
Asia,1623,Mohadevpur Upazila,PopulatedPlace,Bangladesh,24.0,88.0,1,10146.0,populated_place,397670000.0,292589.0,False,Asia
Asia,1624,Shengsi County,Region,China,30.7239,122.454,1,7652.0,populated_place,,75221.0,False,Asia
Asia,1625,Vansda,PopulatedPlace,India,20.45,73.22,1,19958.0,populated_place,215000000.0,40382.0,False,Asia
Asia,1626,Shaheed Bhagat Singh Nagar district,Region,India,31.1253,76.1164,1,71337.0,populated_place,1266000000.0,612310.0,True,Asia
Asia,1627,Liru,PopulatedPlace,Iran,37.1942,55.62,0,5443.0,populated_place,,461.0,True,Asia
Asia,1628,Mungeli district,PopulatedPlace,India,22.067,81.67,1,10724.0,populated_place,2750360000.0,701707.0,False,Asia
Asia,1629,Dhaka District,Region,Bangladesh,23.79,90.3,1,152622.0,populated_place,1463600000.0,22478000.0,False,Asia
Asia,1630,Batticaloa,PopulatedPlace,Sri Lanka,7.71667,81.7,1,111902.0,populated_place,75000000.0,86227.0,False,Asia
Asia,1631,Shoolagiri,PopulatedPlace,India,12.664,78.012,1,15459.0,populated_place,,9430.0,True,Asia
Asia,1632,Mamasani County,Region,Iran,30.05,51.5667,1,6906.0,populated_place,,162694.0,False,Asia
Asia,1633,Geumsan County,Region,South Korea,36.1031,127.489,1,5401.0,populated_place,575980000.0,60740.0,False,Asia
Asia,1634,"Gauriganj, India",PopulatedPlace,India,26.206,81.69,1,22149.0,populated_place,,390935.0,True,Asia
Asia,1635,Quepem taluk,Region,India,15.2125,74.0732,1,5687.0,populated_place,,81193.0,False,Asia
Asia,1636,Bijpur,PopulatedPlace,India,24.0416,82.7894,0,6192.0,populated_place,,9420.0,True,Asia
Asia,1637,Qabb Ilyas,PopulatedPlace,Lebanon,33.7986,35.825,1,13031.0,populated_place,,50000.0,False,Asia
Asia,1638,Fengyang County,Region,China,32.8757,117.532,1,9211.0,populated_place,1949500000.0,683200.0,False,Asia
Asia,1639,Xixia County,Region,China,33.307,111.474,1,10850.0,populated_place,3453000000.0,431800.0,False,Asia
Asia,1640,"Sira, Karnataka",PopulatedPlace,India,13.745,76.909,0,34975.0,populated_place,17470000.0,57554.0,False,Asia
